$GAGSV,3,3,09,33,26,059,18,7*4B
$GBGSV,3,1,09,05,11,105,24,08,09,036,19,12,07,194,24,13,16,060,24,1*7D
$GBGSV,3,2,09,14,15,270,24,21,00,000,22,24,29,302,29,26,00,000,37,1*78
$GBGSV,3,3,09,29,27,046,29,1*48
$GNGSA,A,3,02,12,24,25,29,31,32,,,,,,0.9,0.6,0.7,1*31
$GNGSA,A,3,65,71,72,73,74,80,83,,,,,,0.9,0.6,0.7,2*3E
$GNGSA,A,3,03,05,09,11,24,25,31,,,,,,0.9,0.6,0.7,3*37
$GNGSA,A,3,13,,,,,,,,,,,,0.9,0.6,0.7,4*3E
$GNVTG,,T,,M,0.0,N,0.0,K,A*3D
$GNDTM,P90,,0000.000025,S,00000.000001,E,0.986,W84*5F
$GNRMC,135039.00,A,3619.372926,N,00605.331094,W,0.0,,020321,4.0,W,A,V*7D
$GNGNS,135039.00,3619.372926,N,00605.331094,W,AAAANN,22,0.6,40.9,49.0,,,V*02
$GNGGA,135039.00,3619.372926,N,00605.331094,W,1,12,0.6,40.9,M,49.0,M,,*51
$GPGSV,3,1,09,02,20,063,33,06,02,032,22,12,35,053,32,24,21,123,23,1*69
$GPGSV,3,2,09,25,66,355,36,29,59,185,28,31,23,309,25,32,48,258,41,1*65
$GPGSV,3,3,09,26,00,000,,1*59
$GLGSV,3,1,09,74,42,326,35,73,49,046,34,80,13,090,19,65,14,320,24,1*71
$GLGSV,3,2,09,83,43,057,19,71,16,224,35,72,27,275,24,82,09,023,,1*71
$GLGSV,3,3,09,84,40,147,,1*4B
$GAGSV,3,1,09,03,19,309,22,05,40,253,30,09,21,195,30,11,10,170,21,7*7F
$GAGSV,3,2,09,12,35,119,20,24,64,345,36,25,25,282,33,31,35,064,26,7*7C
$GAGSV,3,3,09,33,26,059,18,7*4B
$GBGSV,3,1,09,05,11,105,24,08,09,036,19,12,07,194,18,13,16,060,26,1*70
$GBGSV,3,2,09,14,15,270,25,21,00,000,21,24,29,302,30,26,00,000,37,1*72
$GBGSV,3,3,09,29,27,046,29,1*48
$GNGSA,A,3,02,12,24,25,29,31,32,,,,,,0.9,0.6,0.7,1*31
$GNGSA,A,3,65,71,72,73,74,80,83,,,,,,0.9,0.6,0.7,2*3E
$GNGSA,A,3,03,05,09,11,24,25,31,,,,,,0.9,0.6,0.7,3*37
$GNGSA,A,3,13,,,,,,,,,,,,0.9,0.6,0.7,4*3E
$GNVTG,,T,,M,0.0,N,0.0,K,A*3D
$GNDTM,P90,,0000.000025,S,00000.000001,E,0.986,W84*5F
$GNRMC,135040.00,A,3619.373026,N,00605.331144,W,0.0,,020321,4.0,W,A,V*77
$GNGNS,135040.00,3619.373026,N,00605.331144,W,AAAANN,22,0.6,40.9,49.0,,,V*08
$GNGGA,135040.00,3619.373026,N,00605.331144,W,1,12,0.6,40.9,M,49.0,M,,*5B
$GPGSV,3,1,09,02,20,063,34,06,02,032,24,12,35,053,35,24,21,123,23,1*6F
$GPGSV,3,2,09,25,66,355,38,29,59,185,27,31,23,309,25,32,48,258,41,1*64
$GPGSV,3,3,09,26,00,000,,1*59
$GLGSV,3,1,09,74,42,326,37,73,49,046,33,80,13,090,20,65,14,320,27,1*7D
$GLGSV,3,2,09,83,43,057,21,71,16,224,35,72,27,275,26,82,09,023,,1*78
$GLGSV,3,3,09,84,40,147,,1*4B
$GAGSV,3,1,09,03,19,309,22,05,40,253,32,09,21,195,30,11,10,170,24,7*78
$GAGSV,3,2,09,12,35,119,17,24,64,345,37,25,25,282,34,31,35,064,29,7*71
$GAGSV,3,3,09,33,26,059,18,7*4B
$GBGSV,3,1,09,05,11,105,24,08,09,036,22,12,07,194,18,13,16,060,26,1*78
$GBGSV,3,2,09,14,15,270,24,21,00,000,21,24,29,302,30,26,00,000,37,1*73
$GBGSV,3,3,09,29,27,046,31,1*41
$GNGSA,A,3,02,12,24,25,29,31,32,,,,,,0.9,0.6,0.7,1*31
$GNGSA,A,3,65,71,72,73,74,80,83,,,,,,0.9,0.6,0.7,2*3E
$GNGSA,A,3,03,05,09,11,24,25,31,,,,,,0.9,0.6,0.7,3*37
$GNGSA,A,3,13,,,,,,,,,,,,0.9,0.6,0.7,4*3E
$GNVTG,,T,,M,0.0,N,0.0,K,A*3D
$GNDTM,P90,,0000.000025,S,00000.000001,E,0.986,W84*5F
$GNRMC,135041.00,A,3619.373182,N,00605.331375,W,0.0,,020321,4.0,W,A,V*79
$GNGNS,135041.00,3619.373182,N,00605.331375,W,AAAANN,22,0.6,41.0,49.0,,,V*0E
$GNGGA,135041.00,3619.373182,N,00605.331375,W,1,12,0.6,41.0,M,49.0,M,,*5D
$GPGSV,3,1,09,02,20,063,32,06,02,032,21,12,35,053,32,24,21,123,23,1*6B
$GPGSV,3,2,09,25,66,355,34,29,59,185,24,31,23,309,25,32,48,258,38,1*65
$GPGSV,3,3,09,26,00,000,,1*59
$GLGSV,3,1,09,74,42,326,33,73,49,046,31,80,13,090,20,65,14,320,22,1*7E
$GLGSV,3,2,09,83,43,057,21,71,16,224,33,72,27,275,25,82,09,023,,1*7D
$GLGSV,3,3,09,84,40,147,,1*4B
$GAGSV,3,1,09,03,19,309,20,05,40,253,30,09,21,195,28,11,10,170,22,7*77
$GAGSV,3,2,09,12,35,119,17,24,64,345,35,25,25,282,33,31,35,064,24,7*79
$GAGSV,3,3,09,33,26,059,18,7*4B
$GBGSV,3,1,09,05,11,105,24,08,09,036,22,12,07,194,18,13,16,060,27,1*79
$GBGSV,3,2,09,14,15,270,24,21,00,000,21,24,29,302,28,26,00,000,35,1*78
$GBGSV,3,3,09,29,27,046,28,1*49
$GNGSA,A,3,02,12,24,25,29,31,32,,,,,,0.9,0.6,0.7,1*31
$GNGSA,A,3,65,71,72,73,74,80,83,,,,,,0.9,0.6,0.7,2*3E
$GNGSA,A,3,03,05,09,11,24,25,31,,,,,,0.9,0.6,0.7,3*37
$GNGSA,A,3,13,,,,,,,,,,,,0.9,0.6,0.7,4*3E
$GNVTG,1.4,T,1.4,M,0.3,N,0.6,K,A*38
$GNDTM,P90,,0000.000025,S,00000.000001,E,0.986,W84*5F
$GNRMC,135042.00,A,3619.373294,N,00605.331418,W,0.3,1.4,020321,4.0,W,A,V*5A
$GNGNS,135042.00,3619.373294,N,00605.331418,W,AAAANN,22,0.6,41.5,49.0,,,V*00
$GNGGA,135042.00,3619.373294,N,00605.331418,W,1,12,0.6,41.5,M,49.0,M,,*53
$GPGSV,3,1,09,02,20,063,33,06,02,032,23,12,35,053,32,24,21,123,23,1*68
$GPGSV,3,2,09,25,66,355,38,29,59,185,27,31,23,309,20,32,48,258,41,1*61
$GPGSV,3,3,09,26,00,000,,1*59
$GLGSV,3,1,09,74,42,326,36,73,49,046,33,80,13,090,20,65,14,320,22,1*79
$GLGSV,3,2,09,83,43,057,20,71,16,224,36,72,27,275,26,82,09,023,,1*7A
$GLGSV,3,3,09,84,40,147,,1*4B
$GAGSV,3,1,09,03,19,309,24,05,40,253,31,09,21,195,31,11,10,170,23,7*7B
$GAGSV,3,2,09,12,35,119,21,24,64,345,37,25,25,282,34,31,35,064,23,7*7E
$GAGSV,3,3,09,33,26,059,18,7*4B
$GBGSV,3,1,09,05,11,105,24,08,09,036,22,12,07,194,18,13,16,060,28,1*76
$GBGSV,3,2,09,14,15,270,25,21,00,000,21,24,29,302,30,26,00,000,37,1*72
$GBGSV,3,3,09,29,27,046,29,1*48
$GNGSA,A,3,02,12,24,25,29,31,32,,,,,,1.0,0.6,0.7,1*39
$GNGSA,A,3,65,71,72,73,74,,,,,,,,1.0,0.6,0.7,2*35
$GNGSA,A,3,03,05,09,24,25,31,,,,,,,1.0,0.6,0.7,3*3F
$GNGSA,A,3,13,,,,,,,,,,,,1.0,0.6,0.7,4*36
$GNVTG,,T,,M,0.0,N,0.0,K,A*3D
$GNDTM,P90,,0000.000025,S,00000.000001,E,0.986,W84*5F
$GNRMC,135043.00,A,3619.373458,N,00605.331727,W,0.0,,020321,4.0,W,A,V*7A
$GNGNS,135043.00,3619.373458,N,00605.331727,W,AAAANN,19,0.6,42.7,49.0,,,V*01
$GNGGA,135043.00,3619.373458,N,00605.331727,W,1,12,0.6,42.7,M,49.0,M,,*5A
$GPGSV,3,1,09,02,20,063,35,06,02,032,23,12,35,053,33,24,21,123,21,1*6D
$GPGSV,3,2,09,25,66,355,37,29,59,185,28,31,23,309,34,32,48,258,39,1*6B
$GPGSV,3,3,09,26,00,000,,1*59
$GLGSV,3,1,09,74,42,326,36,73,49,046,36,80,13,090,19,65,14,320,21,1*75
$GLGSV,3,2,09,83,43,057,27,71,16,224,38,72,27,275,29,82,09,023,,1*7C
$GLGSV,3,3,09,84,40,147,,1*4B
$GAGSV,3,1,09,03,19,309,31,05,40,253,31,09,21,195,27,11,10,170,26,7*7D
$GAGSV,3,2,09,12,35,119,31,24,64,345,36,25,25,282,38,31,35,064,36,7*76
$GAGSV,3,3,09,33,26,059,18,7*4B
$GBGSV,3,1,09,05,11,105,24,08,09,036,22,12,07,194,18,13,16,060,29,1*77
$GBGSV,3,2,09,14,15,270,25,21,00,000,21,24,29,302,35,26,00,000,35,1*75
$GBGSV,3,3,09,29,27,046,33,1*43
$GNGSA,A,3,02,12,24,25,29,31,32,,,,,,0.9,0.6,0.7,1*31
$GNGSA,A,3,65,71,72,73,74,83,,,,,,,0.9,0.6,0.7,2*36
$GNGSA,A,3,03,05,09,11,12,24,25,31,,,,,0.9,0.6,0.7,3*34
$GNGSA,A,3,13,,,,,,,,,,,,0.9,0.6,0.7,4*3E
$GNVTG,,T,,M,0.0,N,0.0,K,A*3D
$GNDTM,P90,,0000.000025,S,00000.000001,E,0.986,W84*5F
$GNRMC,135044.00,A,3619.373572,N,00605.331731,W,0.0,,020321,4.0,W,A,V*73
$GNGNS,135044.00,3619.373572,N,00605.331731,W,AAAANN,22,0.6,43.0,49.0,,,V*06
$GNGGA,135044.00,3619.373572,N,00605.331731,W,1,12,0.6,43.0,M,49.0,M,,*55
$GPGSV,3,1,09,02,20,063,37,06,02,032,23,12,35,053,35,24,21,123,26,1*6E
$GPGSV,3,2,09,25,66,355,39,29,59,185,28,31,23,309,35,32,48,258,40,1*6A
$GPGSV,3,3,09,26,00,000,,1*59
$GLGSV,3,1,09,74,42,326,39,82,09,023,13,73,49,046,39,80,13,090,25,1*7E
$GLGSV,3,2,09,65,14,320,22,83,43,057,22,71,16,224,40,72,27,275,29,1*73
$GLGSV,3,3,09,84,40,147,,1*4B
$GAGSV,3,1,09,03,19,309,32,05,40,253,35,09,21,195,28,11,10,170,24,7*77
$GAGSV,3,2,09,12,35,119,29,24,64,345,38,25,25,282,37,31,35,064,30,7*78
$GAGSV,3,3,09,33,26,059,18,7*4B
$GBGSV,3,1,09,05,11,105,24,08,09,036,22,12,07,194,18,13,16,060,26,1*78
$GBGSV,3,2,09,14,15,270,25,21,00,000,20,24,29,302,38,26,00,000,36,1*7A
$GBGSV,3,3,09,29,27,046,32,1*42
$GNGSA,A,3,02,12,24,25,29,31,32,,,,,,0.9,0.6,0.7,1*31
$GNGSA,A,3,65,71,72,73,74,80,83,,,,,,0.9,0.6,0.7,2*3E
$GNGSA,A,3,03,05,09,11,12,24,25,31,,,,,0.9,0.6,0.7,3*34
$GNGSA,A,3,13,,,,,,,,,,,,0.9,0.6,0.7,4*3E
$GNVTG,,T,,M,0.0,N,0.0,K,A*3D
$GNDTM,P90,,0000.000025,S,00000.000001,E,0.986,W84*5F
$GNRMC,135045.00,A,3619.373258,N,00605.331526,W,0.0,,020321,4.0,W,A,V*79
$GNGNS,135045.00,3619.373258,N,00605.331526,W,AAAANN,23,0.6,43.4,49.0,,,V*09
$GNGGA,135045.00,3619.373258,N,00605.331526,W,1,12,0.6,43.4,M,49.0,M,,*5B
$GPGSV,3,1,09,02,20,063,36,06,02,032,18,12,35,053,31,24,21,123,28,1*6D
$GPGSV,3,2,09,25,66,355,40,29,59,185,30,31,23,309,34,32,48,258,38,1*63
$GPGSV,3,3,09,26,00,000,,1*59
$GLGSV,3,1,09,74,42,326,36,82,09,023,13,73,49,046,39,80,13,090,25,1*71
$GLGSV,3,2,09,65,14,320,22,83,43,057,25,71,16,224,39,72,27,275,32,1*70
$GLGSV,3,3,09,84,40,147,,1*4B
$GAGSV,3,1,09,03,19,309,31,05,40,253,35,09,21,195,28,11,10,170,24,7*74
$GAGSV,3,2,09,12,35,119,28,24,64,345,38,25,25,282,35,31,35,064,31,7*7A
$GAGSV,3,3,09,33,26,059,18,7*4B
$GBGSV,3,1,09,05,11,105,24,08,09,036,22,12,07,194,18,13,16,060,27,1*79
$GBGSV,3,2,09,14,15,270,20,21,00,000,20,24,29,302,38,26,00,000,37,1*7E
$GBGSV,3,3,09,29,27,046,31,1*41
$GNGSA,A,3,02,12,24,25,29,31,32,,,,,,0.9,0.6,0.7,1*31
$GNGSA,A,3,65,71,72,73,74,80,83,,,,,,0.9,0.6,0.7,2*3E
$GNGSA,A,3,03,05,09,11,12,24,25,31,,,,,0.9,0.6,0.7,3*34
$GNGSA,A,3,13,,,,,,,,,,,,0.9,0.6,0.7,4*3E
$GNVTG,1.2,T,1.2,M,2.0,N,3.7,K,A*3B
$GNDTM,P90,,0000.000025,S,00000.000001,E,0.986,W84*5F
$GNRMC,135046.00,A,3619.373714,N,00605.331586,W,2.0,1.2,020321,4.0,W,A,V*52
$GNGNS,135046.00,3619.373714,N,00605.331586,W,AAAANN,23,0.6,43.8,49.0,,,V*01
$GNGGA,135046.00,3619.373714,N,00605.331586,W,1,12,0.6,43.8,M,49.0,M,,*53
$GPGSV,3,1,09,02,20,063,34,06,02,032,18,12,35,053,31,24,21,123,26,1*61
$GPGSV,3,2,09,25,66,355,36,29,59,185,26,31,23,309,36,32,48,258,41,1*69
$GPGSV,3,3,09,26,00,000,,1*59
$GLGSV,3,1,09,74,42,326,33,82,09,023,13,73,49,046,39,80,13,090,22,1*73
$GLGSV,3,2,09,65,14,320,23,83,43,057,23,71,16,224,37,72,27,275,35,1*7E
$GLGSV,3,3,09,84,40,147,,1*4B
$GAGSV,3,1,09,03,19,309,31,05,40,253,34,09,21,195,24,11,10,170,21,7*7C
$GAGSV,3,2,09,12,35,119,30,24,64,345,36,25,25,282,32,31,35,064,27,7*7D
$GAGSV,3,3,09,33,26,059,18,7*4B
$GBGSV,3,1,09,05,11,105,24,08,09,036,18,12,07,194,18,13,16,060,30,1*76
$GBGSV,3,2,09,14,15,270,29,21,00,000,19,24,29,302,36,26,00,000,35,1*71
$GBGSV,3,3,09,29,27,046,31,1*41
$GNGSA,A,3,02,12,24,25,29,31,32,,,,,,0.9,0.6,0.7,1*31
$GNGSA,A,3,71,72,73,74,80,83,,,,,,,0.9,0.6,0.7,2*3D
$GNGSA,A,3,03,05,09,11,12,24,25,31,,,,,0.9,0.6,0.7,3*34
$GNGSA,A,3,13,,,,,,,,,,,,0.9,0.6,0.7,4*3E
$GNVTG,347.3,T,347.3,M,6.0,N,11.1,K,A*0A
$GNDTM,P90,,0000.000025,S,00000.000001,E,0.986,W84*5F
$GNRMC,135047.00,A,3619.375024,N,00605.331914,W,6.0,347.3,020321,4.0,W,A,V*52
$GNGNS,135047.00,3619.375024,N,00605.331914,W,AAAANN,22,0.6,44.3,49.0,,,V*08
$GNGGA,135047.00,3619.375024,N,00605.331914,W,1,12,0.6,44.3,M,49.0,M,,*5B
$GPGSV,3,1,09,02,20,063,32,06,02,032,18,12,35,053,33,24,21,123,25,1*66
$GPGSV,3,2,09,25,66,355,35,29,59,185,25,31,23,309,38,32,48,258,43,1*65
$GPGSV,3,3,09,26,00,000,,1*59
$GLGSV,3,1,09,74,42,326,32,82,09,023,19,73,49,046,39,80,13,090,28,1*72
$GLGSV,3,2,09,65,14,320,27,83,43,057,25,71,16,224,34,72,27,275,35,1*7F
$GLGSV,3,3,09,84,40,147,,1*4B
$GAGSV,3,1,09,03,19,309,29,05,40,253,36,09,21,195,24,11,10,170,25,7*73
$GAGSV,3,2,09,12,35,119,32,24,64,345,37,25,25,282,31,31,35,064,27,7*7D
$GAGSV,3,3,09,33,26,059,18,7*4B
$GBGSV,3,1,09,05,11,105,24,08,09,036,18,12,07,194,18,13,16,060,29,1*7E
$GBGSV,3,2,09,14,15,270,33,21,00,000,20,24,29,302,36,26,00,000,35,1*70
$GBGSV,3,3,09,29,27,046,28,1*49
$GNGSA,A,3,02,12,24,25,29,31,32,,,,,,0.9,0.6,0.7,1*31
$GNGSA,A,3,65,71,72,73,74,80,83,,,,,,0.9,0.6,0.7,2*3E
$GNGSA,A,3,03,05,09,11,12,24,25,31,,,,,0.9,0.6,0.7,3*34
$GNGSA,A,3,13,,,,,,,,,,,,0.9,0.6,0.7,4*3E
$GNVTG,347.7,T,347.7,M,10.0,N,18.5,K,A*30
$GNDTM,P90,,0000.000025,S,00000.000001,E,0.986,W84*5F
$GNRMC,135048.00,A,3619.377468,N,00605.332663,W,10.0,347.7,020321,4.0,W,A,V*6C
$GNGNS,135048.00,3619.377468,N,00605.332663,W,AAAANN,23,0.6,44.1,49.0,,,V*06
$GNGGA,135048.00,3619.377468,N,00605.332663,W,1,12,0.6,44.1,M,49.0,M,,*54
$GPGSV,3,1,09,02,20,063,31,06,02,032,18,12,35,053,31,24,21,123,31,1*62
$GPGSV,3,2,09,25,66,355,35,29,59,185,29,31,23,309,38,32,48,258,44,1*6E
$GPGSV,3,3,09,26,00,000,,1*59
$GLGSV,3,1,09,74,42,326,33,82,09,023,22,73,49,046,34,80,13,090,24,1*7A
$GLGSV,3,2,09,65,14,320,21,83,43,057,27,71,16,223,37,72,27,275,31,1*7B
$GLGSV,3,3,09,84,40,147,,1*4B
$GAGSV,3,1,09,03,19,309,33,05,40,253,33,09,21,195,24,11,10,170,25,7*7D
$GAGSV,3,2,09,12,35,119,32,24,64,345,35,25,25,282,27,31,35,064,27,7*78
$GAGSV,3,3,09,33,26,059,18,7*4B
$GBGSV,3,1,09,05,11,105,24,08,09,036,21,12,07,194,18,13,16,060,29,1*74
$GBGSV,3,2,09,14,15,270,33,21,00,000,20,24,29,302,34,26,00,000,33,1*74
$GBGSV,3,3,09,29,27,046,31,1*41
$GNGSA,A,3,02,12,24,25,29,31,32,,,,,,0.9,0.6,0.7,1*31
$GNGSA,A,3,65,71,72,73,74,80,83,,,,,,0.9,0.6,0.7,2*3E
$GNGSA,A,3,03,05,09,11,12,24,25,31,,,,,0.9,0.6,0.7,3*34
$GNGSA,A,3,13,,,,,,,,,,,,0.9,0.6,0.7,4*3E
$GNVTG,349.2,T,349.2,M,13.1,N,24.2,K,A*3A
$GNDTM,P90,,0000.000025,S,00000.000001,E,0.986,W84*5F
$GNRMC,135049.00,A,3619.380941,N,00605.333446,W,13.1,349.2,020321,4.0,W,A,V*6E
$GNGNS,135049.00,3619.380941,N,00605.333446,W,AAAANN,23,0.6,44.6,49.0,,,V*0A
$GNGGA,135049.00,3619.380941,N,00605.333446,W,1,12,0.6,44.6,M,49.0,M,,*58
$GPGSV,3,1,09,02,20,063,34,06,02,032,18,12,35,053,32,24,21,123,31,1*64
$GPGSV,3,2,09,25,66,355,35,29,59,185,30,31,23,309,36,32,48,258,44,1*68
$GPGSV,3,3,09,26,00,000,,1*59
$GLGSV,3,1,09,74,42,326,34,82,09,023,24,73,49,046,36,80,13,090,25,1*78
$GLGSV,3,2,09,65,14,320,21,83,43,057,29,71,16,223,37,72,27,275,30,1*74
$GLGSV,3,3,09,84,40,147,,1*4B
$GAGSV,3,1,09,03,19,309,31,05,40,253,28,09,21,195,24,11,10,170,23,7*73
$GAGSV,3,2,09,12,35,119,31,24,64,345,33,25,25,282,30,31,35,064,26,7*7A
$GAGSV,3,3,09,33,26,059,18,7*4B
$GBGSV,3,1,09,05,11,105,24,08,09,036,21,12,07,194,20,13,16,060,30,1*77
$GBGSV,3,2,09,14,15,270,32,21,00,000,20,24,29,302,32,26,00,000,33,1*73
$GBGSV,3,3,09,29,27,046,29,1*48
$GNGSA,A,3,02,12,24,25,29,31,32,,,,,,0.9,0.5,0.7,1*32
$GNGSA,A,3,65,71,72,73,74,80,82,83,,,,,0.9,0.5,0.7,2*37
$GNGSA,A,3,03,05,09,11,12,24,25,31,,,,,0.9,0.5,0.7,3*37
$GNGSA,A,3,13,,,,,,,,,,,,0.9,0.5,0.7,4*3D
$GNVTG,351.0,T,351.0,M,17.1,N,31.6,K,A*3E
$GNDTM,P90,,0000.000025,S,00000.000001,E,0.986,W84*5F
$GNRMC,135050.00,A,3619.386334,N,00605.334990,W,17.1,351.0,020321,4.0,W,A,V*66
$GNGNS,135050.00,3619.386334,N,00605.334990,W,AAAANN,24,0.5,44.7,49.0,,,V*08
$GNGGA,135050.00,3619.386334,N,00605.334990,W,1,12,0.5,44.7,M,49.0,M,,*5D
$GPGSV,3,1,09,02,20,063,32,06,02,032,20,12,35,053,35,24,21,123,31,1*6E
$GPGSV,3,2,09,25,66,355,37,29,59,185,24,31,23,309,27,32,48,258,40,1*6B
$GPGSV,3,3,09,26,00,000,,1*59
$GLGSV,3,1,09,74,42,326,38,82,09,023,29,73,49,046,38,80,13,090,28,1*7A
$GLGSV,3,2,09,65,14,320,24,83,43,057,28,71,16,223,35,72,27,275,21,1*72
$GLGSV,3,3,09,84,40,147,,1*4B
$GAGSV,3,1,09,03,19,309,23,05,40,253,29,09,21,195,23,11,10,170,23,7*76
$GAGSV,3,2,09,12,35,119,26,24,64,345,33,25,25,282,37,31,35,064,31,7*7D
$GAGSV,3,3,09,33,26,059,18,7*4B
$GBGSV,3,1,09,05,11,105,24,08,09,036,22,12,07,194,25,13,16,060,23,1*73
$GBGSV,3,2,09,14,15,270,28,21,00,000,20,24,29,302,30,26,00,000,38,1*71
$GBGSV,3,3,09,29,27,046,30,1*40
$GNGSA,A,3,02,12,24,25,29,31,32,,,,,,0.8,0.5,0.7,1*33
$GNGSA,A,3,65,71,72,73,74,80,82,83,,,,,0.8,0.5,0.7,2*36
$GNGSA,A,3,03,05,09,11,12,24,25,31,,,,,0.8,0.5,0.7,3*36
$GNGSA,A,3,12,13,,,,,,,,,,,0.8,0.5,0.7,4*3F
$GNVTG,353.0,T,353.0,M,21.1,N,39.1,K,A*34
$GNDTM,P90,,0000.000025,S,00000.000001,E,0.986,W84*5F
$GNRMC,135051.00,A,3619.392372,N,00605.335716,W,21.1,353.0,020321,4.0,W,A,V*66
$GNGNS,135051.00,3619.392372,N,00605.335716,W,AAAANN,25,0.5,45.4,49.0,,,V*0C
$GNGGA,135051.00,3619.392372,N,00605.335716,W,1,12,0.5,45.4,M,49.0,M,,*58
$GPGSV,3,1,09,02,20,063,28,06,02,032,23,12,35,053,39,24,21,123,26,1*6C
$GPGSV,3,2,09,25,66,355,37,29,59,185,21,31,23,309,31,32,48,258,42,1*6B
$GPGSV,3,3,09,26,00,000,,1*59
$GLGSV,3,1,09,74,42,326,40,82,09,023,26,73,49,046,38,80,13,090,29,1*7B
$GLGSV,3,2,09,65,14,320,31,83,43,057,21,71,16,223,28,72,27,275,23,1*71
$GLGSV,3,3,09,84,40,147,,1*4B
$GAGSV,3,1,09,03,19,309,33,05,40,253,31,09,21,195,26,11,10,170,23,7*7B
$GAGSV,3,2,09,12,35,119,24,24,64,345,33,25,25,282,33,31,35,064,33,7*79
$GAGSV,3,3,09,33,26,059,18,7*4B
$GBGSV,3,1,09,05,11,105,24,08,09,036,24,12,07,194,25,13,16,060,23,1*75
$GBGSV,3,2,09,14,15,270,23,21,00,000,20,24,29,302,31,26,00,000,37,1*74
$GBGSV,3,3,09,29,27,046,34,1*44
$GNGSA,A,3,02,12,24,25,29,31,32,,,,,,0.8,0.5,0.7,1*33
$GNGSA,A,3,65,71,72,73,74,80,82,83,,,,,0.8,0.5,0.7,2*36
$GNGSA,A,3,03,05,09,11,12,24,25,31,,,,,0.8,0.5,0.7,3*36
$GNGSA,A,3,12,13,,,,,,,,,,,0.8,0.5,0.7,4*3F
$GNVTG,356.4,T,356.4,M,22.2,N,41.0,K,A*3A
$GNDTM,P90,,0000.000025,S,00000.000001,E,0.986,W84*5F
$GNRMC,135052.00,A,3619.398632,N,00605.336552,W,22.2,356.4,020321,4.0,W,A,V*6E
$GNGNS,135052.00,3619.398632,N,00605.336552,W,AAAANN,25,0.5,45.3,49.0,,,V*02
$GNGGA,135052.00,3619.398632,N,00605.336552,W,1,12,0.5,45.3,M,49.0,M,,*56
$GPGSV,3,1,09,02,20,063,26,06,02,032,22,12,35,053,38,24,21,123,25,1*61
$GPGSV,3,2,09,25,66,355,35,29,59,185,21,31,23,309,31,32,48,258,43,1*68
$GPGSV,3,3,09,26,00,000,,1*59
$GLGSV,3,1,09,74,42,326,40,82,09,023,23,73,49,046,36,80,13,090,30,1*78
$GLGSV,3,2,09,65,14,320,30,83,43,057,21,71,16,223,27,72,27,275,25,1*79
$GLGSV,3,3,09,84,40,147,,1*4B
$GAGSV,3,1,09,03,19,309,33,05,40,253,31,09,21,195,23,11,10,170,20,7*7D
$GAGSV,3,2,09,12,35,119,27,24,64,345,33,25,25,282,36,31,35,064,30,7*7C
$GAGSV,3,3,09,33,26,059,18,7*4B
$GBGSV,3,1,09,05,11,105,21,08,09,036,24,12,07,194,22,13,16,060,25,1*71
$GBGSV,3,2,09,14,15,270,24,21,00,000,20,24,29,302,31,26,00,000,37,1*73
$GBGSV,3,3,09,29,27,046,35,1*45
$GNGSA,A,3,02,12,24,25,29,31,32,,,,,,0.8,0.5,0.7,1*33
$GNGSA,A,3,65,71,72,73,74,80,82,83,,,,,0.8,0.5,0.7,2*36
$GNGSA,A,3,03,05,09,11,12,24,25,31,,,,,0.8,0.5,0.7,3*36
$GNGSA,A,3,12,13,,,,,,,,,,,0.8,0.5,0.7,4*3F
$GNVTG,356.9,T,356.9,M,24.1,N,44.7,K,A*3D
$GNDTM,P90,,0000.000025,S,00000.000001,E,0.986,W84*5F
$GNRMC,135053.00,A,3619.405493,N,00605.337151,W,24.1,356.9,020321,4.0,W,A,V*6B
$GNGNS,135053.00,3619.405493,N,00605.337151,W,AAAANN,25,0.5,45.4,49.0,,,V*08
$GNGGA,135053.00,3619.405493,N,00605.337151,W,1,12,0.5,45.4,M,49.0,M,,*5C
$GPGSV,3,1,09,02,20,063,26,06,02,032,22,12,35,053,38,24,21,123,27,1*63
$GPGSV,3,2,09,25,66,355,37,29,59,185,21,31,23,309,32,32,48,258,43,1*69
$GPGSV,3,3,09,26,00,000,,1*59
$GLGSV,3,1,09,74,42,326,40,82,09,023,23,73,49,046,37,80,13,090,29,1*71
$GLGSV,3,2,09,65,14,320,30,84,40,147,16,83,43,057,19,71,16,223,29,1*76
$GLGSV,3,3,09,72,27,275,22,1*41
$GAGSV,3,1,09,03,19,309,34,05,40,253,33,09,21,195,27,11,10,170,23,7*7F
$GAGSV,3,2,09,12,35,119,27,24,64,345,34,25,25,282,35,31,35,064,30,7*78
$GAGSV,3,3,09,33,26,059,18,7*4B
$GBGSV,3,1,09,05,11,105,21,08,09,036,21,12,07,194,25,13,16,060,27,1*71
$GBGSV,3,2,09,14,15,270,22,21,00,000,20,24,29,302,32,26,00,000,37,1*76
$GBGSV,3,3,09,29,27,046,35,1*45
$GNGSA,A,3,02,12,24,25,29,31,32,,,,,,0.9,0.5,0.7,1*32
$GNGSA,A,3,65,71,72,73,74,80,82,83,,,,,0.9,0.5,0.7,2*37
$GNGSA,A,3,03,05,09,12,24,25,31,,,,,,0.9,0.5,0.7,3*37
$GNGSA,A,3,12,13,,,,,,,,,,,0.9,0.5,0.7,4*3E
$GNVTG,356.8,T,356.8,M,26.7,N,49.4,K,A*37
$GNDTM,P90,,0000.000025,S,00000.000001,E,0.986,W84*5F
$GNRMC,135054.00,A,3619.413175,N,00605.337820,W,26.7,356.8,020321,4.0,W,A,V*6C
$GNGNS,135054.00,3619.413175,N,00605.337820,W,AAAANN,24,0.5,45.6,49.0,,,V*09
$GNGGA,135054.00,3619.413175,N,00605.337820,W,1,12,0.5,45.6,M,49.0,M,,*5C
$GPGSV,3,1,09,02,20,063,28,06,02,032,20,12,35,053,36,24,21,123,27,1*61
$GPGSV,3,2,09,25,66,355,36,26,00,000,17,29,59,185,22,31,23,309,35,1*6B
$GPGSV,3,3,09,32,48,258,43,1*58
$GLGSV,3,1,09,74,42,326,40,82,09,023,20,73,49,046,37,80,13,090,29,1*72
$GLGSV,3,2,09,65,14,320,28,84,40,147,24,83,43,057,19,71,16,223,30,1*76
$GLGSV,3,3,09,72,27,275,22,1*41
$GAGSV,2,1,08,03,19,309,34,05,40,253,30,09,21,195,30,11,10,170,23,7*7A
$GAGSV,2,2,08,12,35,119,27,24,64,345,34,25,25,282,35,31,35,064,30,7*78
$GBGSV,3,1,09,05,11,105,21,08,09,036,21,12,07,194,27,13,16,060,28,1*7C
$GBGSV,3,2,09,14,15,270,22,21,00,000,20,24,29,302,34,26,00,000,38,1*7F
$GBGSV,3,3,09,29,27,046,34,1*44
$GNGSA,A,3,02,12,24,25,29,31,32,,,,,,0.9,0.5,0.7,1*32
$GNGSA,A,3,65,71,72,73,74,80,82,83,84,,,,0.9,0.5,0.7,2*3B
$GNGSA,A,3,03,05,09,12,24,25,31,,,,,,0.9,0.5,0.7,3*37
$GNGSA,A,3,12,13,,,,,,,,,,,0.9,0.5,0.7,4*3E
$GNVTG,356.3,T,356.3,M,29.4,N,54.5,K,A*36
$GNDTM,P90,,0000.000025,S,00000.000001,E,0.986,W84*5F
$GNRMC,135055.00,A,3619.421738,N,00605.338840,W,29.4,356.3,020321,4.0,W,A,V*6D
$GNGNS,135055.00,3619.421738,N,00605.338840,W,AAAANN,25,0.5,45.6,49.0,,,V*0E
$GNGGA,135055.00,3619.421738,N,00605.338840,W,1,12,0.5,45.6,M,49.0,M,,*5A
$GPGSV,3,1,09,02,20,063,30,06,02,032,20,12,35,053,38,24,21,123,27,1*66
$GPGSV,3,2,09,25,66,355,38,26,00,000,17,29,59,185,22,31,23,309,34,1*64
$GPGSV,3,3,09,32,48,258,43,1*58
$GLGSV,3,1,09,74,42,326,40,82,09,023,23,73,49,046,36,80,13,090,31,1*79
$GLGSV,3,2,09,65,14,320,28,84,40,147,24,83,43,057,19,71,16,223,31,1*77
$GLGSV,3,3,09,72,27,275,24,1*47
$GAGSV,2,1,08,03,19,309,34,05,40,253,30,09,21,195,29,11,10,170,23,7*72
$GAGSV,2,2,08,12,35,119,25,24,64,345,35,25,25,282,35,31,35,064,28,7*72
$GBGSV,3,1,09,05,11,105,24,08,09,036,21,12,07,194,27,13,16,060,26,1*77
$GBGSV,3,2,09,14,15,270,22,21,00,000,20,24,29,302,33,26,00,000,37,1*77
$GBGSV,3,3,09,29,27,046,34,1*44
$GNGSA,A,3,02,12,24,25,29,31,32,,,,,,0.9,0.5,0.7,1*32
$GNGSA,A,3,65,71,72,73,74,80,82,83,84,,,,0.9,0.5,0.7,2*3B
$GNGSA,A,3,03,05,09,12,24,25,31,,,,,,0.9,0.5,0.7,3*37
$GNGSA,A,3,12,13,,,,,,,,,,,0.9,0.5,0.7,4*3E
$GNVTG,355.9,T,355.9,M,31.7,N,58.8,K,A*3D
$GNDTM,P90,,0000.000025,S,00000.000001,E,0.986,W84*5F
$GNRMC,135056.00,A,3619.430590,N,00605.339542,W,31.7,355.9,020321,4.0,W,A,V*63
$GNGNS,135056.00,3619.430590,N,00605.339542,W,AAAANN,25,0.5,46.0,49.0,,,V*06
$GNGGA,135056.00,3619.430590,N,00605.339542,W,1,12,0.5,46.0,M,49.0,M,,*52
$GPGSV,3,1,09,02,20,063,33,06,02,032,20,12,35,053,35,24,21,123,21,1*6E
$GPGSV,3,2,09,25,66,355,36,26,00,000,17,29,59,185,21,31,23,309,34,1*69
$GPGSV,3,3,09,32,48,258,43,1*58
$GLGSV,3,1,09,74,42,326,39,82,09,023,27,73,49,047,37,80,13,090,29,1*7A
$GLGSV,3,2,09,65,14,320,29,84,40,147,24,83,43,057,20,71,16,223,28,1*74
$GLGSV,3,3,09,72,27,275,24,1*47
$GAGSV,2,1,08,03,19,309,34,05,40,253,28,09,21,195,29,11,10,170,23,7*7B
$GAGSV,2,2,08,12,35,119,27,24,64,345,34,25,25,282,34,31,35,064,31,7*78
$GBGSV,3,1,09,05,11,105,24,08,09,036,20,12,07,194,27,13,16,060,24,1*74
$GBGSV,3,2,09,14,15,270,25,21,00,000,20,24,29,302,32,26,00,000,36,1*70
$GBGSV,3,3,09,29,27,046,36,1*46
$GNGSA,A,3,02,12,24,25,31,32,,,,,,,0.9,0.5,0.7,1*39
$GNGSA,A,3,65,71,72,73,74,80,82,84,,,,,0.9,0.5,0.7,2*30
$GNGSA,A,3,03,05,09,12,24,25,31,,,,,,0.9,0.5,0.7,3*37
$GNGSA,A,3,12,13,,,,,,,,,,,0.9,0.5,0.7,4*3E
$GNVTG,355.5,T,355.5,M,32.8,N,60.8,K,A*3A
$GNDTM,P90,,0000.000025,S,00000.000001,E,0.986,W84*5F
$GNRMC,135057.00,A,3619.439714,N,00605.340460,W,32.8,355.5,020321,4.0,W,A,V*6A
$GNGNS,135057.00,3619.439714,N,00605.340460,W,AAAANN,23,0.5,46.2,49.0,,,V*0B
$GNGGA,135057.00,3619.439714,N,00605.340460,W,1,12,0.5,46.2,M,49.0,M,,*59
$GPGSV,3,1,09,02,20,063,30,06,02,032,20,12,35,053,33,24,21,123,25,1*6F
$GPGSV,3,2,09,25,66,355,36,26,00,000,17,29,59,185,23,31,23,309,31,1*6E
$GPGSV,3,3,09,32,48,258,44,1*5F
$GLGSV,3,1,09,74,42,326,38,82,09,023,29,73,49,047,34,80,13,090,28,1*77
$GLGSV,3,2,09,65,14,320,28,84,40,147,22,83,43,057,22,71,16,223,29,1*70
$GLGSV,3,3,09,72,27,275,24,1*47
$GAGSV,2,1,08,03,19,309,32,05,40,253,27,09,21,195,26,11,10,170,20,7*7E
$GAGSV,2,2,08,12,35,119,26,24,64,345,37,25,25,282,35,31,35,064,32,7*78
$GBGSV,3,1,09,05,11,105,24,08,09,036,24,12,07,194,27,13,16,060,24,1*70
$GBGSV,3,2,09,14,15,270,25,21,00,000,20,24,29,302,31,26,00,000,32,1*77
$GBGSV,3,3,09,29,27,046,33,1*43
$GNGSA,A,3,02,12,24,25,29,31,32,,,,,,0.9,0.5,0.7,1*32
$GNGSA,A,3,65,71,73,74,80,82,,,,,,,0.9,0.5,0.7,2*39
$GNGSA,A,3,03,05,09,12,24,25,31,,,,,,0.9,0.5,0.7,3*37
$GNVTG,354.7,T,354.7,M,35.7,N,66.1,K,A*3D
$GNDTM,P90,,0000.000025,S,00000.000001,E,0.986,W84*5F
$GNRMC,135058.00,A,3619.449238,N,00605.341082,W,35.7,354.7,020321,4.0,W,A,V*6B
$GNGNS,135058.00,3619.449238,N,00605.341082,W,AAANNN,20,0.5,45.6,49.0,,,V*0A
$GNGGA,135058.00,3619.449238,N,00605.341082,W,1,12,0.5,45.6,M,49.0,M,,*54
$GPGSV,3,1,09,02,20,063,27,06,02,032,18,12,35,053,34,24,21,123,24,1*64
$GPGSV,3,2,09,25,66,355,37,26,00,000,17,29,59,185,24,31,23,309,30,1*69
$GPGSV,3,3,09,32,48,258,45,1*5E
$GLGSV,3,1,09,74,42,326,39,82,09,023,28,73,49,047,35,80,13,090,23,1*7D
$GLGSV,3,2,09,65,14,320,22,84,40,147,23,83,43,057,24,71,16,223,31,1*74
$GLGSV,3,3,09,72,27,275,21,1*42
$GAGSV,2,1,08,03,19,309,32,05,40,253,31,09,21,195,30,11,10,170,24,7*7A
$GAGSV,2,2,08,12,35,119,23,24,64,345,37,25,25,282,35,31,35,064,34,7*7B
$GBGSV,3,1,09,05,11,105,24,08,09,036,26,12,07,194,27,13,16,060,24,1*72
$GBGSV,3,2,09,14,15,270,21,21,00,000,20,24,29,302,34,26,00,000,34,1*70
$GBGSV,3,3,09,29,27,046,35,1*45
$GNGSA,A,3,02,12,24,25,29,31,32,,,,,,0.8,0.5,0.7,1*33
$GNGSA,A,3,71,73,74,82,83,,,,,,,,0.8,0.5,0.7,2*38
$GNGSA,A,3,03,05,09,11,24,25,31,,,,,,0.8,0.5,0.7,3*35
$GNGSA,A,3,08,,,,,,,,,,,,0.8,0.5,0.7,4*36
$GNVTG,355.2,T,355.2,M,37.1,N,68.7,K,A*31
$GNDTM,P90,,0000.000025,S,00000.000001,E,0.986,W84*5F
$GNRMC,135059.00,A,3619.459331,N,00605.342056,W,37.1,355.2,020321,4.0,W,A,V*69
$GNGNS,135059.00,3619.459331,N,00605.342056,W,AAAANN,20,0.5,45.6,49.0,,,V*07
$GNGGA,135059.00,3619.459331,N,00605.342056,W,1,12,0.5,45.6,M,49.0,M,,*56
$GPGSV,3,1,09,02,20,063,29,06,02,032,30,12,35,053,35,24,21,123,26,1*63
$GPGSV,3,2,09,25,66,355,35,26,00,000,17,29,59,185,28,31,23,309,32,1*65
$GPGSV,3,3,09,32,48,258,45,1*5E
$GLGSV,3,1,09,74,42,326,39,82,09,023,27,73,49,047,35,80,13,090,25,1*74
$GLGSV,3,2,09,65,14,320,22,84,40,147,24,83,43,057,24,71,16,223,30,1*72
$GLGSV,3,3,09,72,27,275,25,1*46
$GAGSV,2,1,08,03,19,309,32,05,40,253,30,09,21,195,30,11,10,170,26,7*79
$GAGSV,2,2,08,12,35,119,27,24,64,345,36,25,25,282,35,31,35,064,32,7*78
$GBGSV,3,1,09,05,11,105,23,08,09,036,25,12,07,194,19,13,16,060,21,1*7E
$GBGSV,3,2,09,14,15,270,25,21,00,000,20,24,29,302,36,26,00,000,35,1*77
$GBGSV,3,3,09,29,27,046,36,1*46
$GNGSA,A,3,02,12,24,25,29,31,32,,,,,,0.8,0.5,0.7,1*33
$GNGSA,A,3,71,72,73,74,80,82,84,,,,,,0.8,0.5,0.7,2*32
$GNGSA,A,3,03,05,09,11,12,24,25,31,,,,,0.8,0.5,0.7,3*36
$GNGSA,A,3,08,,,,,,,,,,,,0.8,0.5,0.7,4*36
$GNVTG,356.1,T,356.1,M,38.1,N,70.6,K,A*36
$GNDTM,P90,,0000.000025,S,00000.000001,E,0.986,W84*5F
$GNRMC,135100.00,A,3619.469737,N,00605.343047,W,38.1,356.1,020321,4.0,W,A,V*6B
$GNGNS,135100.00,3619.469737,N,00605.343047,W,AAAANN,23,0.5,45.7,49.0,,,V*08
$GNGGA,135100.00,3619.469737,N,00605.343047,W,1,12,0.5,45.7,M,49.0,M,,*5A
$GPGSV,3,1,09,02,20,063,30,06,02,032,28,12,35,053,34,24,21,123,27,1*62
$GPGSV,3,2,09,25,66,357,35,26,00,000,17,29,59,185,26,31,23,309,32,1*69
$GPGSV,3,3,09,32,48,258,45,1*5E
$GLGSV,3,1,09,74,42,326,38,82,09,023,27,73,49,047,36,80,13,090,26,1*75
$GLGSV,3,2,09,65,14,320,21,84,40,147,25,83,43,057,20,71,16,223,30,1*74
$GLGSV,3,3,09,72,27,275,23,1*40
$GAGSV,2,1,08,03,19,309,33,05,40,253,29,09,21,195,30,11,10,170,25,7*73
$GAGSV,2,2,08,12,35,119,26,24,64,345,36,25,25,282,34,31,35,064,32,7*78
$GBGSV,3,1,09,05,11,105,23,08,09,036,26,12,07,194,24,13,16,060,22,1*70
$GBGSV,3,2,09,14,15,270,28,21,00,000,20,24,29,302,36,26,00,000,37,1*78
$GBGSV,3,3,09,29,27,046,36,1*46
$GNGSA,A,3,02,12,24,25,29,31,32,,,,,,0.8,0.5,0.7,1*33
$GNGSA,A,3,71,72,73,74,80,82,84,,,,,,0.8,0.5,0.7,2*32
$GNGSA,A,3,03,05,09,11,12,24,25,31,,,,,0.8,0.5,0.7,3*36
$GNGSA,A,3,08,,,,,,,,,,,,0.8,0.5,0.7,4*36
$GNVTG,356.1,T,356.1,M,39.4,N,73.0,K,A*37
$GNDTM,P90,,0000.000025,S,00000.000001,E,0.986,W84*5F
$GNRMC,135101.00,A,3619.480602,N,00605.344136,W,39.4,356.1,020321,4.0,W,A,V*6E
$GNGNS,135101.00,3619.480602,N,00605.344136,W,AAAANN,23,0.5,46.1,49.0,,,V*0C
$GNGGA,135101.00,3619.480602,N,00605.344136,W,1,12,0.5,46.1,M,49.0,M,,*5E
$GPGSV,3,1,09,02,20,063,30,06,02,032,23,12,35,053,35,24,21,123,28,1*67
$GPGSV,3,2,09,25,66,357,39,26,00,000,26,29,59,185,22,31,23,309,31,1*60
$GPGSV,3,3,09,32,48,258,44,1*5F
$GLGSV,3,1,09,74,42,326,38,82,09,023,27,73,49,047,38,80,13,090,26,1*7B
$GLGSV,3,2,09,65,14,320,24,84,40,147,21,83,43,057,25,71,16,223,33,1*73
$GLGSV,3,3,09,72,27,275,25,1*46
$GAGSV,2,1,08,03,19,309,32,05,40,253,29,09,21,195,24,11,10,170,25,7*77
$GAGSV,2,2,08,12,35,119,25,24,64,345,37,25,25,282,33,31,35,064,33,7*7C
$GBGSV,3,1,09,05,11,105,23,08,09,036,24,12,07,194,24,13,16,060,25,1*75
$GBGSV,3,2,09,14,15,270,24,21,00,000,20,24,29,302,34,26,00,000,37,1*76
$GBGSV,3,3,09,29,27,046,35,1*45
$GNGSA,A,3,02,12,24,25,31,32,,,,,,,0.8,0.5,0.7,1*38
$GNGSA,A,3,65,71,72,73,74,82,83,,,,,,0.8,0.5,0.7,2*3E
$GNGSA,A,3,03,05,11,12,24,25,31,,,,,,0.8,0.5,0.7,3*3F
$GNGSA,A,3,13,,,,,,,,,,,,0.8,0.5,0.7,4*3C
$GNVTG,356.2,T,356.2,M,38.8,N,71.8,K,A*30
$GNDTM,P90,,0000.000025,S,00000.000001,E,0.986,W84*5F
$GNRMC,135102.00,A,3619.491335,N,00605.345005,W,38.8,356.2,020321,4.0,W,A,V*62
$GNGNS,135102.00,3619.491335,N,00605.345005,W,AAAANN,21,0.5,46.3,49.0,,,V*0E
$GNGGA,135102.00,3619.491335,N,00605.345005,W,1,12,0.5,46.3,M,49.0,M,,*5E
$GPGSV,3,1,09,02,20,063,25,06,02,032,21,12,35,053,35,24,21,123,26,1*6F
$GPGSV,3,2,09,25,66,357,37,26,00,000,32,29,59,185,22,31,23,309,30,1*6A
$GPGSV,3,3,09,32,48,258,43,1*58
$GLGSV,3,1,09,74,42,326,38,82,09,023,25,73,49,047,38,80,13,090,26,1*79
$GLGSV,3,2,09,65,14,320,24,84,40,147,23,83,43,057,25,71,16,223,32,1*70
$GLGSV,3,3,09,72,27,275,25,1*46
$GAGSV,2,1,08,03,19,309,32,05,40,253,30,09,21,195,29,11,10,170,27,7*70
$GAGSV,2,2,08,12,35,119,25,24,64,345,35,25,25,282,36,31,35,064,22,7*7B
$GBGSV,3,1,09,05,11,105,28,08,09,036,27,12,07,194,27,13,16,060,27,1*7C
$GBGSV,3,2,09,14,15,270,23,21,00,000,20,24,29,302,32,26,00,000,37,1*77
$GBGSV,3,3,09,29,27,046,35,1*45
$GNGSA,A,3,02,12,24,25,31,32,,,,,,,0.8,0.5,0.7,1*38
$GNGSA,A,3,71,73,74,82,,,,,,,,,0.8,0.5,0.7,2*33
$GNGSA,A,3,03,05,09,11,24,25,,,,,,,0.8,0.5,0.7,3*37
$GNGSA,A,3,05,08,12,13,,,,,,,,,0.8,0.5,0.7,4*32
$GNVTG,356.0,T,356.0,M,39.7,N,73.4,K,A*30
$GNDTM,P90,,0000.000025,S,00000.000001,E,0.986,W84*5F
$GNRMC,135103.00,A,3619.502194,N,00605.345937,W,39.7,356.0,020321,4.0,W,A,V*65
$GNGNS,135103.00,3619.502194,N,00605.345937,W,AAAANN,20,0.5,46.4,49.0,,,V*03
$GNGGA,135103.00,3619.502194,N,00605.345937,W,1,12,0.5,46.4,M,49.0,M,,*52
$GPGSV,3,1,09,02,20,063,27,06,02,032,21,12,35,053,37,24,21,123,28,1*61
$GPGSV,3,2,09,25,66,357,38,26,00,000,34,29,59,185,22,31,23,309,30,1*63
$GPGSV,3,3,09,32,48,258,44,1*5F
$GLGSV,3,1,09,74,42,326,38,82,09,023,23,73,49,047,37,80,13,090,18,1*7D
$GLGSV,3,2,09,65,14,320,19,84,40,147,22,83,43,057,19,71,16,223,32,1*70
$GLGSV,3,3,09,72,27,275,25,1*46
$GAGSV,2,1,08,03,19,309,32,05,40,253,29,09,21,195,30,11,10,170,27,7*70
$GAGSV,2,2,08,12,35,119,25,24,64,345,36,25,25,282,36,31,35,064,22,7*78
$GBGSV,3,1,09,05,11,105,28,08,09,036,28,12,07,194,26,13,16,060,24,1*71
$GBGSV,3,2,09,14,15,270,22,21,00,000,20,24,29,302,32,26,00,000,37,1*76
$GBGSV,3,3,09,29,27,046,35,1*45
$GNGSA,A,3,02,12,24,25,31,32,,,,,,,0.8,0.5,0.7,1*38
$GNGSA,A,3,71,73,74,,,,,,,,,,0.8,0.5,0.7,2*39
$GNGSA,A,3,03,05,09,11,24,25,,,,,,,0.8,0.5,0.7,3*37
$GNGSA,A,3,08,12,,,,,,,,,,,0.8,0.5,0.7,4*35
$GNVTG,355.7,T,355.7,M,41.1,N,76.1,K,A*39
$GNDTM,P90,,0000.000025,S,00000.000001,E,0.986,W84*5F
$GNRMC,135104.00,A,3619.513574,N,00605.347128,W,41.1,355.7,020321,4.0,W,A,V*61
$GNGNS,135104.00,3619.513574,N,00605.347128,W,AAAANN,17,0.5,46.2,49.0,,,V*08
$GNGGA,135104.00,3619.513574,N,00605.347128,W,1,12,0.5,46.2,M,49.0,M,,*5D
$GPGSV,3,1,09,02,20,063,26,06,02,032,20,12,35,053,36,24,21,123,27,1*6F
$GPGSV,3,2,09,25,66,357,37,26,00,000,27,29,59,185,22,31,23,309,30,1*6E
$GPGSV,3,3,09,32,48,258,43,1*58
$GLGSV,3,1,09,74,42,326,38,82,09,023,22,73,49,047,37,80,13,090,18,1*7C
$GLGSV,3,2,09,65,14,320,19,84,40,147,21,83,43,057,19,71,16,223,31,1*70
$GLGSV,3,3,09,72,27,275,25,1*46
$GAGSV,2,1,08,03,19,309,31,05,40,253,30,09,21,195,29,11,10,170,25,7*71
$GAGSV,2,2,08,12,35,119,25,24,64,345,35,25,25,282,35,31,35,064,24,7*7E
$GBGSV,3,1,09,05,11,105,28,08,09,036,27,12,07,194,25,13,16,060,23,1*7A
$GBGSV,3,2,09,14,15,270,22,21,00,000,20,24,29,302,33,26,00,000,35,1*75
$GBGSV,3,3,09,29,27,046,35,1*45
$GNGSA,A,3,02,12,24,25,31,32,,,,,,,0.8,0.5,0.7,1*38
$GNGSA,A,3,71,73,74,,,,,,,,,,0.8,0.5,0.7,2*39
$GNGSA,A,3,03,05,09,11,24,25,,,,,,,0.8,0.5,0.7,3*37
$GNGSA,A,3,08,12,,,,,,,,,,,0.8,0.5,0.7,4*35
$GNVTG,356.5,T,356.5,M,42.0,N,77.9,K,A*32
$GNDTM,P90,,0000.000025,S,00000.000001,E,0.986,W84*5F
$GNRMC,135105.00,A,3619.525132,N,00605.348126,W,42.0,356.5,020321,4.0,W,A,V*61
$GNGNS,135105.00,3619.525132,N,00605.348126,W,AAAANN,17,0.5,46.3,49.0,,,V*0A
$GNGGA,135105.00,3619.525132,N,00605.348126,W,1,12,0.5,46.3,M,49.0,M,,*5F
$GPGSV,3,1,09,02,20,063,28,06,02,032,22,12,35,053,36,24,21,123,27,1*63
$GPGSV,3,2,09,25,66,357,37,26,00,000,28,29,59,185,20,31,23,309,30,1*63
$GPGSV,3,3,09,32,48,258,44,1*5F
$GLGSV,3,1,09,74,42,326,38,82,09,023,22,73,49,047,38,80,13,090,19,1*72
$GLGSV,3,2,09,65,14,320,21,84,40,147,21,83,43,057,22,71,16,223,30,1*72
$GLGSV,3,3,09,72,27,275,25,1*46
$GAGSV,2,1,08,03,19,309,32,05,40,253,31,09,21,195,29,11,10,170,26,7*70
$GAGSV,2,2,08,12,35,119,25,24,64,345,36,25,25,282,36,31,35,064,24,7*7E
$GBGSV,3,1,09,05,11,105,28,08,09,036,27,12,07,194,24,13,16,060,23,1*7B
$GBGSV,3,2,09,14,15,270,21,21,00,000,20,24,29,302,32,26,00,000,35,1*77
$GBGSV,3,3,09,29,27,046,36,1*46
$GNGSA,A,3,02,12,24,25,31,32,,,,,,,0.8,0.5,0.7,1*38
$GNGSA,A,3,71,73,74,,,,,,,,,,0.8,0.5,0.7,2*39
$GNGSA,A,3,03,05,09,11,24,25,,,,,,,0.8,0.5,0.7,3*37
$GNGSA,A,3,05,08,,,,,,,,,,,0.8,0.5,0.7,4*33
$GNVTG,355.9,T,355.9,M,42.5,N,78.7,K,A*36
$GNDTM,P90,,0000.000025,S,00000.000001,E,0.986,W84*5F
$GNRMC,135106.00,A,3619.536881,N,00605.349224,W,42.5,355.9,020321,4.0,W,A,V*6B
$GNGNS,135106.00,3619.536881,N,00605.349224,W,AAAANN,17,0.5,46.5,49.0,,,V*0C
$GNGGA,135106.00,3619.536881,N,00605.349224,W,1,12,0.5,46.5,M,49.0,M,,*59
$GPGSV,3,1,09,02,20,063,28,06,02,032,24,12,35,053,36,24,21,123,28,1*6A
$GPGSV,3,2,09,25,66,357,37,26,00,000,33,29,59,185,22,31,23,309,29,1*63
$GPGSV,3,3,09,32,48,258,44,1*5F
$GLGSV,3,1,09,74,42,326,38,82,09,023,28,73,49,047,38,80,13,090,19,1*78
$GLGSV,3,2,09,65,14,320,21,84,40,147,22,83,43,057,21,71,16,223,31,1*73
$GLGSV,3,3,09,72,27,275,17,1*47
$GAGSV,2,1,08,03,19,309,32,05,40,253,31,09,21,195,30,11,10,170,27,7*79
$GAGSV,2,2,08,12,35,119,19,24,64,345,36,25,25,282,36,31,35,064,22,7*77
$GBGSV,3,1,09,05,11,105,28,08,09,036,26,12,07,194,24,13,16,060,22,1*7B
$GBGSV,3,2,09,14,15,270,21,21,00,000,20,24,29,302,32,26,00,000,35,1*77
$GBGSV,3,3,09,29,27,046,36,1*46
$GNGSA,A,3,02,12,24,25,31,32,,,,,,,0.8,0.5,0.7,1*38
$GNGSA,A,3,71,73,74,82,,,,,,,,,0.8,0.5,0.7,2*33
$GNGSA,A,3,03,05,09,11,24,25,,,,,,,0.8,0.5,0.7,3*37
$GNGSA,A,3,08,,,,,,,,,,,,0.8,0.5,0.7,4*36
$GNVTG,356.1,T,356.1,M,43.2,N,79.9,K,A*3F
$GNDTM,P90,,0000.000025,S,00000.000001,E,0.986,W84*5F
$GNRMC,135107.00,A,3619.548577,N,00605.350222,W,43.2,356.1,020321,4.0,W,A,V*64
$GNGNS,135107.00,3619.548577,N,00605.350222,W,AAAANN,17,0.5,46.7,49.0,,,V*0C
$GNGGA,135107.00,3619.548577,N,00605.350222,W,1,12,0.5,46.7,M,49.0,M,,*59
$GPGSV,3,1,09,02,20,063,28,06,02,032,22,12,35,053,35,24,21,123,27,1*60
$GPGSV,3,2,09,25,66,357,38,26,00,000,33,29,59,185,23,31,23,309,31,1*64
$GPGSV,3,3,09,32,48,258,44,1*5F
$GLGSV,3,1,09,74,42,326,38,82,09,023,25,73,49,047,38,80,13,090,19,1*75
$GLGSV,3,2,09,65,14,320,21,84,40,147,21,83,43,057,22,71,16,223,31,1*73
$GLGSV,3,3,09,72,27,275,17,1*47
$GAGSV,2,1,08,03,19,309,32,05,40,253,31,09,21,195,30,11,10,170,26,7*78
$GAGSV,2,2,08,12,35,119,19,24,64,345,36,25,25,282,36,31,35,064,24,7*71
$GBGSV,3,1,09,05,11,105,28,08,09,036,26,12,07,194,24,13,16,060,25,1*7C
$GBGSV,3,2,09,14,15,270,22,21,00,000,20,24,29,302,32,26,00,000,35,1*74
$GBGSV,3,3,09,29,27,046,36,1*46
$GNGSA,A,3,02,12,24,25,31,32,,,,,,,0.9,0.5,0.7,1*39
$GNGSA,A,3,71,73,74,82,,,,,,,,,0.9,0.5,0.7,2*32
$GNGSA,A,3,03,05,09,11,24,25,,,,,,,0.9,0.5,0.7,3*36
$GNGSA,A,3,08,13,,,,,,,,,,,0.9,0.5,0.7,4*35
$GNVTG,356.0,T,356.0,M,43.5,N,80.5,K,A*32
$GNDTM,P90,,0000.000025,S,00000.000001,E,0.986,W84*5F
$GNRMC,135108.00,A,3619.560754,N,00605.351317,W,43.5,356.0,020321,4.0,W,A,V*62
$GNGNS,135108.00,3619.560754,N,00605.351317,W,AAAANN,18,0.5,46.9,49.0,,,V*0D
$GNGGA,135108.00,3619.560754,N,00605.351317,W,1,12,0.5,46.9,M,49.0,M,,*57
$GPGSV,3,1,09,02,20,063,27,06,02,032,22,12,35,053,33,24,21,123,22,1*6C
$GPGSV,3,2,09,25,66,357,38,26,00,000,32,29,59,185,23,31,23,309,29,1*6C
$GPGSV,3,3,09,32,48,258,44,1*5F
$GLGSV,3,1,09,74,42,326,37,82,09,023,24,73,49,047,37,80,13,090,17,1*7A
$GLGSV,3,2,09,65,14,320,19,84,40,147,22,83,43,057,22,71,16,223,32,1*78
$GLGSV,3,3,09,72,27,275,19,1*49
$GAGSV,2,1,08,03,19,309,32,05,40,253,34,09,21,195,29,11,10,170,27,7*74
$GAGSV,2,2,08,12,35,119,19,24,64,345,36,25,25,282,34,31,35,064,28,7*7F
$GBGSV,3,1,09,05,11,105,24,08,09,036,26,12,07,194,25,13,16,060,25,1*71
$GBGSV,3,2,09,14,15,270,23,21,00,000,19,24,29,302,32,26,00,000,34,1*7E
$GBGSV,3,3,09,29,27,046,35,1*45
$GNGSA,A,3,02,12,25,31,32,,,,,,,,0.9,0.6,0.7,1*3C
$GNGSA,A,3,71,73,74,82,,,,,,,,,0.9,0.6,0.7,2*31
$GNGSA,A,3,03,05,09,11,24,25,31,,,,,,0.9,0.6,0.7,3*37
$GNGSA,A,3,08,12,13,,,,,,,,,,0.9,0.6,0.7,4*35
$GNVTG,356.0,T,356.0,M,43.7,N,81.0,K,A*34
$GNDTM,P90,,0000.000025,S,00000.000001,E,0.986,W84*5F
$GNRMC,135109.00,A,3619.572919,N,00605.352416,W,43.7,356.0,020321,4.0,W,A,V*60
$GNGNS,135109.00,3619.572919,N,00605.352416,W,AAAANN,19,0.6,47.0,49.0,,,V*07
$GNGGA,135109.00,3619.572919,N,00605.352416,W,1,12,0.6,47.0,M,49.0,M,,*5C
$GPGSV,3,1,09,02,20,063,28,06,02,032,22,12,35,053,33,24,21,123,24,1*65
$GPGSV,3,2,09,25,66,357,38,26,00,000,31,29,59,185,23,31,23,309,27,1*61
$GPGSV,3,3,09,32,48,258,43,1*58
$GLGSV,3,1,09,74,42,326,38,82,09,023,26,73,49,047,37,80,13,090,17,1*77
$GLGSV,3,2,09,65,14,320,19,84,40,147,22,83,43,057,20,71,16,223,32,1*7A
$GLGSV,3,3,09,72,27,275,21,1*42
$GAGSV,2,1,08,03,19,309,31,05,40,253,34,09,21,195,30,11,10,170,27,7*7F
$GAGSV,2,2,08,12,35,119,19,24,64,345,37,25,25,282,35,31,35,064,27,7*70
$GBGSV,3,1,09,05,11,105,24,08,09,036,26,12,07,194,26,13,16,060,22,1*75
$GBGSV,3,2,09,14,15,270,23,21,00,000,23,24,29,302,32,26,00,000,33,1*70
$GBGSV,3,3,09,29,27,046,36,1*46
$GNGSA,A,3,02,12,24,25,31,32,,,,,,,0.9,0.6,0.7,1*3A
$GNGSA,A,3,71,73,74,82,,,,,,,,,0.9,0.6,0.7,2*31
$GNGSA,A,3,03,05,09,11,24,25,31,,,,,,0.9,0.6,0.7,3*37
$GNGSA,A,3,08,12,,,,,,,,,,,0.9,0.6,0.7,4*37
$GNVTG,355.8,T,355.8,M,44.7,N,82.8,K,A*38
$GNDTM,P90,,0000.000025,S,00000.000001,E,0.986,W84*5F
$GNRMC,135110.00,A,3619.585680,N,00605.353703,W,44.7,355.8,020321,4.0,W,A,V*65
$GNGNS,135110.00,3619.585680,N,00605.353703,W,AAAANN,19,0.6,47.2,49.0,,,V*0C
$GNGGA,135110.00,3619.585680,N,00605.353703,W,1,12,0.6,47.2,M,49.0,M,,*57
$GPGSV,3,1,09,02,20,063,29,06,02,032,22,12,35,053,32,24,21,123,25,1*64
$GPGSV,3,2,09,25,66,357,37,26,00,000,31,29,59,185,20,31,23,309,27,1*6D
$GPGSV,3,3,09,32,48,258,44,1*5F
$GLGSV,3,1,09,74,42,326,38,82,09,023,25,73,49,047,38,80,13,090,17,1*7B
$GLGSV,3,2,09,65,14,320,19,84,40,147,22,83,43,057,20,71,16,223,32,1*7A
$GLGSV,3,3,09,72,27,275,24,1*47
$GAGSV,2,1,08,03,19,309,32,05,40,253,34,09,21,195,30,11,10,170,26,7*7D
$GAGSV,2,2,08,12,35,119,19,24,64,345,37,25,25,282,35,31,35,064,28,7*7F
$GBGSV,3,1,09,05,11,105,24,08,09,036,26,12,07,194,23,13,16,060,23,1*71
$GBGSV,3,2,09,14,15,270,22,21,00,000,23,24,29,302,33,26,00,000,32,1*71
$GBGSV,3,3,09,29,27,046,36,1*46
$GNGSA,A,3,02,12,24,25,31,32,,,,,,,0.9,0.6,0.7,1*3A
$GNGSA,A,3,71,72,73,74,82,,,,,,,,0.9,0.6,0.7,2*34
$GNGSA,A,3,03,05,09,11,24,25,31,,,,,,0.9,0.6,0.7,3*37
$GNGSA,A,3,08,,,,,,,,,,,,0.9,0.6,0.7,4*34
$GNVTG,355.6,T,355.6,M,45.3,N,83.9,K,A*3D
$GNDTM,P90,,0000.000025,S,00000.000001,E,0.986,W84*5F
$GNRMC,135111.00,A,3619.598341,N,00605.354954,W,45.3,355.6,020321,4.0,W,A,V*60
$GNGNS,135111.00,3619.598341,N,00605.354954,W,AAAANN,19,0.6,47.2,49.0,,,V*02
$GNGGA,135111.00,3619.598341,N,00605.354954,W,1,12,0.6,47.2,M,49.0,M,,*59
$GPGSV,3,1,09,02,20,063,28,06,02,032,19,12,35,053,32,24,21,123,23,1*6B
$GPGSV,3,2,09,25,66,357,36,26,00,000,31,29,59,185,23,31,23,309,29,1*61
$GPGSV,3,3,09,32,48,258,42,1*59
$GLGSV,3,1,09,74,42,326,37,82,09,023,25,73,49,047,37,80,13,090,17,1*7B
$GLGSV,3,2,09,65,14,320,19,84,40,147,22,83,43,057,20,71,16,223,32,1*7A
$GLGSV,3,3,09,72,27,275,26,1*45
$GAGSV,2,1,08,03,19,309,32,05,40,253,33,09,21,195,29,11,10,170,25,7*71
$GAGSV,2,2,08,12,35,119,19,24,64,345,36,25,25,282,35,31,35,064,27,7*71
$GBGSV,3,1,09,05,11,105,24,08,09,036,26,12,07,194,22,13,16,060,25,1*76
$GBGSV,3,2,09,14,15,270,22,21,00,000,23,24,29,302,33,26,00,000,31,1*72
$GBGSV,3,3,09,29,27,046,34,1*44
$GNGSA,A,3,02,12,24,25,31,32,,,,,,,0.9,0.6,0.7,1*3A
$GNGSA,A,3,71,72,73,74,,,,,,,,,0.9,0.6,0.7,2*3E
$GNGSA,A,3,03,05,09,11,24,25,31,,,,,,0.9,0.6,0.7,3*37
$GNGSA,A,3,08,13,,,,,,,,,,,0.9,0.6,0.7,4*36
$GNVTG,356.1,T,356.1,M,44.6,N,82.6,K,A*37
$GNDTM,P90,,0000.000025,S,00000.000001,E,0.986,W84*5F
$GNRMC,135112.00,A,3619.610672,N,00605.356042,W,44.6,356.1,020321,4.0,W,A,V*69
$GNGNS,135112.00,3619.610672,N,00605.356042,W,AAAANN,19,0.6,47.5,49.0,,,V*0C
$GNGGA,135112.00,3619.610672,N,00605.356042,W,1,12,0.6,47.5,M,49.0,M,,*57
$GPGSV,3,1,09,02,20,063,28,06,02,032,19,12,35,053,32,24,21,123,23,1*6B
$GPGSV,3,2,09,25,66,357,38,26,00,000,32,29,59,185,23,31,23,309,29,1*6C
$GPGSV,3,3,09,32,48,258,43,1*58
$GLGSV,3,1,09,74,42,326,38,82,09,023,19,73,49,047,37,80,13,090,17,1*7B
$GLGSV,3,2,09,65,14,320,20,84,40,147,22,83,43,057,20,71,16,223,31,1*73
$GLGSV,3,3,09,72,27,275,23,1*40
$GAGSV,2,1,08,03,19,309,32,05,40,253,33,09,21,195,30,11,10,170,27,7*7B
$GAGSV,2,2,08,12,35,119,19,24,64,345,37,25,25,282,35,31,35,064,28,7*7F
$GBGSV,3,1,09,05,11,105,24,08,09,036,23,12,07,194,25,13,16,060,26,1*77
$GBGSV,3,2,09,14,15,270,22,21,00,000,23,24,29,302,32,26,00,000,33,1*71
$GBGSV,3,3,09,29,27,046,35,1*45
$GNGSA,A,3,02,12,25,29,31,32,,,,,,,0.9,0.6,0.7,1*37
$GNGSA,A,3,71,72,73,74,,,,,,,,,0.9,0.6,0.7,2*3E
$GNGSA,A,3,03,05,09,11,24,25,31,,,,,,0.9,0.6,0.7,3*37
$GNGSA,A,3,12,13,,,,,,,,,,,0.9,0.6,0.7,4*3D
$GNVTG,355.6,T,355.6,M,44.2,N,81.9,K,A*3F
$GNDTM,P90,,0000.000025,S,00000.000001,E,0.986,W84*5F
$GNRMC,135113.00,A,3619.623242,N,00605.357308,W,44.2,355.6,020321,4.0,W,A,V*63
$GNGNS,135113.00,3619.623242,N,00605.357308,W,AAAANN,19,0.6,47.7,49.0,,,V*04
$GNGGA,135113.00,3619.623242,N,00605.357308,W,1,12,0.6,47.7,M,49.0,M,,*5F
$GPGSV,3,1,09,02,20,063,28,06,02,032,19,12,35,053,32,24,21,123,27,1*6F
$GPGSV,3,2,09,25,66,357,37,26,00,000,26,29,59,185,23,31,23,309,29,1*66
$GPGSV,3,3,09,32,48,258,43,1*58
$GLGSV,3,1,09,74,42,326,38,82,09,023,19,73,49,047,37,80,13,090,16,1*7A
$GLGSV,3,2,09,65,14,320,21,84,40,147,22,83,43,057,20,71,16,223,32,1*71
$GLGSV,3,3,09,72,27,275,26,1*45
$GAGSV,2,1,08,03,19,309,33,05,40,253,33,09,21,195,29,11,10,170,24,7*71
$GAGSV,2,2,08,12,35,119,19,24,64,345,37,25,25,282,35,31,35,064,27,7*70
$GBGSV,3,1,09,05,11,105,24,08,09,036,26,12,07,194,23,13,16,060,25,1*77
$GBGSV,3,2,09,14,15,270,22,21,00,000,20,24,29,302,32,26,00,000,35,1*74
$GBGSV,3,3,09,29,27,046,34,1*44
$GNGSA,A,3,02,12,24,25,31,32,,,,,,,0.9,0.6,0.7,1*3A
$GNGSA,A,3,71,72,73,74,,,,,,,,,0.9,0.6,0.7,2*3E
$GNGSA,A,3,03,05,09,24,25,31,,,,,,,0.9,0.6,0.7,3*37
$GNGSA,A,3,08,13,,,,,,,,,,,0.9,0.6,0.7,4*36
$GNVTG,355.9,T,355.9,M,43.5,N,80.6,K,A*31
$GNDTM,P90,,0000.000025,S,00000.000001,E,0.986,W84*5F
$GNRMC,135114.00,A,3619.635479,N,00605.358389,W,43.5,355.9,020321,4.0,W,A,V*64
$GNGNS,135114.00,3619.635479,N,00605.358389,W,AAAANN,18,0.6,47.8,49.0,,,V*02
$GNGGA,135114.00,3619.635479,N,00605.358389,W,1,12,0.6,47.8,M,49.0,M,,*58
$GPGSV,3,1,09,02,20,063,25,06,02,032,19,12,35,053,30,24,21,123,26,1*61
$GPGSV,3,2,09,25,66,357,37,26,00,000,20,29,59,185,21,31,23,309,31,1*6B
$GPGSV,3,3,09,32,48,258,43,1*58
$GLGSV,3,1,09,74,42,326,38,82,09,023,19,73,49,047,37,80,13,090,16,1*7A
$GLGSV,3,2,09,65,14,320,21,84,40,147,21,83,43,057,16,71,16,223,32,1*77
$GLGSV,3,3,09,72,27,275,26,1*45
$GAGSV,2,1,08,03,19,309,33,05,40,253,33,09,21,195,29,11,10,170,24,7*71
$GAGSV,2,2,08,12,35,119,19,24,64,345,37,25,25,282,35,31,35,064,27,7*70
$GBGSV,3,1,09,05,11,105,24,08,09,036,26,12,07,194,23,13,16,060,25,1*77
$GBGSV,3,2,09,14,15,270,22,21,00,000,20,24,29,302,31,26,00,000,35,1*77
$GBGSV,3,3,09,29,27,046,32,1*42
$GNGSA,A,3,02,12,24,25,31,32,,,,,,,0.9,0.6,0.7,1*3A
$GNGSA,A,3,71,72,73,74,,,,,,,,,0.9,0.6,0.7,2*3E
$GNGSA,A,3,03,05,09,24,25,31,,,,,,,0.9,0.6,0.7,3*37
$GNVTG,356.0,T,356.0,M,42.5,N,78.7,K,A*36
$GNDTM,P90,,0000.000025,S,00000.000001,E,0.986,W84*5F
$GNRMC,135115.00,A,3619.647023,N,00605.359442,W,42.5,356.0,020321,4.0,W,A,V*61
$GNGNS,135115.00,3619.647023,N,00605.359442,W,AAANNN,16,0.6,48.1,49.0,,,V*0B
$GNGGA,135115.00,3619.647023,N,00605.359442,W,1,12,0.6,48.1,M,49.0,M,,*50
$GPGSV,3,1,09,02,20,063,26,06,02,032,19,12,35,053,30,24,21,123,26,1*62
$GPGSV,3,2,09,25,66,357,38,26,00,000,20,29,59,185,25,31,23,309,31,1*60
$GPGSV,3,3,09,32,48,258,43,1*58
$GLGSV,3,1,09,74,42,326,37,82,09,023,20,73,49,047,37,80,13,090,16,1*7F
$GLGSV,3,2,09,65,14,320,19,84,40,147,21,83,43,057,16,71,16,223,31,1*7F
$GLGSV,3,3,09,72,27,275,25,1*46
$GAGSV,2,1,08,03,19,309,33,05,40,253,33,09,21,195,31,11,10,170,26,7*7A
$GAGSV,2,2,08,12,35,119,19,24,64,345,38,25,25,282,36,31,35,064,28,7*73
$GBGSV,3,1,09,05,11,105,24,08,09,036,26,12,07,194,24,13,16,060,22,1*77
$GBGSV,3,2,09,14,15,270,22,21,00,000,20,24,29,302,32,26,00,000,33,1*72
$GBGSV,3,3,09,29,27,046,33,1*43
$GNGSA,A,3,02,12,25,29,31,32,,,,,,,0.9,0.6,0.7,1*37
$GNGSA,A,3,71,72,73,74,,,,,,,,,0.9,0.6,0.7,2*3E
$GNGSA,A,3,03,05,09,11,24,25,31,,,,,,0.9,0.6,0.7,3*37
$GNVTG,355.4,T,355.4,M,41.5,N,76.8,K,A*34
$GNDTM,P90,,0000.000025,S,00000.000001,E,0.986,W84*5F
$GNRMC,135116.00,A,3619.658791,N,00605.360636,W,41.5,355.4,020321,4.0,W,A,V*6D
$GNGNS,135116.00,3619.658791,N,00605.360636,W,AAANNN,17,0.6,48.6,49.0,,,V*05
$GNGGA,135116.00,3619.658791,N,00605.360636,W,1,12,0.6,48.6,M,49.0,M,,*5F
$GPGSV,3,1,09,02,20,063,28,06,02,032,19,12,35,053,32,24,21,123,19,1*62
$GPGSV,3,2,09,25,66,357,38,26,00,000,25,29,59,185,23,31,23,309,31,1*63
$GPGSV,3,3,09,32,48,258,43,1*58
$GLGSV,3,1,09,74,42,326,38,82,09,023,24,73,49,047,37,80,13,090,16,1*74
$GLGSV,3,2,09,65,14,320,19,84,40,147,23,83,43,057,16,71,16,223,31,1*7D
$GLGSV,3,3,09,72,27,275,23,1*40
$GAGSV,2,1,08,03,19,309,33,05,40,253,34,09,21,195,30,11,10,170,27,7*7D
$GAGSV,2,2,08,12,35,119,19,24,64,345,38,25,25,282,35,31,35,064,28,7*70
$GBGSV,3,1,09,05,11,105,24,08,09,036,20,12,07,194,23,13,16,060,24,1*70
$GBGSV,3,2,09,14,15,270,21,21,00,000,20,24,29,302,32,26,00,000,33,1*71
$GBGSV,3,3,09,29,27,046,35,1*45
$GNGSA,A,3,02,12,25,31,32,,,,,,,,0.9,0.6,0.7,1*3C
$GNGSA,A,3,71,72,73,74,82,,,,,,,,0.9,0.6,0.7,2*34
$GNGSA,A,3,03,05,09,11,24,25,31,,,,,,0.9,0.6,0.7,3*37
$GNVTG,355.7,T,355.7,M,40.6,N,75.2,K,A*3F
$GNDTM,P90,,0000.000025,S,00000.000001,E,0.986,W84*5F
$GNRMC,135117.00,A,3619.670359,N,00605.361753,W,40.6,355.7,020321,4.0,W,A,V*64
$GNGNS,135117.00,3619.670359,N,00605.361753,W,AAANNN,17,0.6,48.7,49.0,,,V*0C
$GNGGA,135117.00,3619.670359,N,00605.361753,W,1,12,0.6,48.7,M,49.0,M,,*56
$GPGSV,3,1,09,02,20,063,28,06,02,032,19,12,35,053,31,24,21,123,23,1*68
$GPGSV,3,2,09,25,66,357,39,26,00,000,28,29,59,185,25,31,23,309,32,1*6A
$GPGSV,3,3,09,32,48,258,43,1*58
$GLGSV,3,1,09,74,42,326,37,82,09,023,27,73,49,047,36,80,13,090,16,1*79
$GLGSV,3,2,09,65,14,320,20,84,40,147,22,83,43,057,16,71,16,223,32,1*75
$GLGSV,3,3,09,72,27,275,23,1*40
$GAGSV,2,1,08,03,19,309,32,05,40,253,33,09,21,195,29,11,10,170,27,7*73
$GAGSV,2,2,08,12,35,119,19,24,64,345,37,25,25,282,35,31,35,064,28,7*7F
$GBGSV,3,1,09,05,11,105,24,08,09,036,20,12,07,194,26,13,16,060,26,1*77
$GBGSV,3,2,09,14,15,270,22,21,00,000,20,24,29,302,32,26,00,000,34,1*75
$GBGSV,3,3,09,29,27,046,34,1*44
$GNGSA,A,3,02,12,25,29,31,32,,,,,,,0.9,0.6,0.7,1*37
$GNGSA,A,3,71,72,73,74,82,,,,,,,,0.9,0.6,0.7,2*34
$GNGSA,A,3,03,05,09,11,24,25,31,,,,,,0.9,0.6,0.7,3*37
$GNGSA,A,3,12,13,,,,,,,,,,,0.9,0.6,0.7,4*3D
$GNVTG,356.3,T,356.3,M,39.1,N,72.5,K,A*36
$GNDTM,P90,,0000.000025,S,00000.000001,E,0.986,W84*5F
$GNRMC,135118.00,A,3619.681272,N,00605.362736,W,39.1,356.3,020321,4.0,W,A,V*63
$GNGNS,135118.00,3619.681272,N,00605.362736,W,AAAANN,20,0.6,48.9,49.0,,,V*00
$GNGGA,135118.00,3619.681272,N,00605.362736,W,1,12,0.6,48.9,M,49.0,M,,*51
$GPGSV,3,1,09,02,20,063,28,06,02,032,19,12,34,053,31,24,21,123,23,1*69
$GPGSV,3,2,09,25,66,357,39,26,00,000,20,29,59,185,23,31,23,309,32,1*64
$GPGSV,3,3,09,32,48,258,43,1*58
$GLGSV,3,1,09,74,42,326,37,82,09,023,27,73,49,047,36,80,13,090,17,1*78
$GLGSV,3,2,09,65,14,320,20,84,40,147,22,83,43,057,16,71,16,223,32,1*75
$GLGSV,3,3,09,72,27,275,24,1*47
$GAGSV,2,1,08,03,19,309,33,05,40,253,32,09,21,195,29,11,10,170,27,7*73
$GAGSV,2,2,08,12,35,119,16,24,64,345,37,25,25,282,36,31,35,064,29,7*72
$GBGSV,3,1,09,05,11,105,24,08,09,036,20,12,07,194,24,13,16,060,26,1*75
$GBGSV,3,2,09,14,15,270,22,21,00,000,20,24,29,302,32,26,00,000,35,1*74
$GBGSV,3,3,09,29,27,046,34,1*44
$GNGSA,A,3,02,12,25,31,32,,,,,,,,0.9,0.6,0.7,1*3C
$GNGSA,A,3,71,72,73,74,,,,,,,,,0.9,0.6,0.7,2*3E
$GNGSA,A,3,03,05,09,11,24,25,31,,,,,,0.9,0.6,0.7,3*37
$GNGSA,A,3,13,,,,,,,,,,,,0.9,0.6,0.7,4*3E
$GNVTG,355.7,T,355.7,M,38.5,N,71.4,K,A*31
$GNDTM,P90,,0000.000025,S,00000.000001,E,0.986,W84*5F
$GNRMC,135119.00,A,3619.692152,N,00605.363784,W,38.5,355.7,020321,4.0,W,A,V*6B
$GNGNS,135119.00,3619.692152,N,00605.363784,W,AAAANN,17,0.6,49.2,49.0,,,V*04
$GNGGA,135119.00,3619.692152,N,00605.363784,W,1,12,0.6,49.2,M,49.0,M,,*51
$GPGSV,3,1,09,02,20,063,23,06,02,032,19,12,34,053,31,24,21,123,20,1*61
$GPGSV,3,2,09,25,66,357,40,26,00,000,20,29,59,185,21,31,23,309,32,1*68
$GPGSV,3,3,09,32,48,258,43,1*58
$GLGSV,3,1,09,74,42,326,37,82,09,023,21,73,49,047,36,80,13,090,17,1*7E
$GLGSV,3,2,09,65,14,320,19,84,40,147,24,83,43,057,16,71,16,223,32,1*79
$GLGSV,3,3,09,72,27,275,22,1*41
$GAGSV,2,1,08,03,19,309,32,05,40,253,33,09,21,195,28,11,10,170,28,7*7D
$GAGSV,2,2,08,12,35,119,16,24,64,345,37,25,25,282,36,31,35,064,29,7*72
$GBGSV,3,1,09,05,11,105,24,08,09,036,19,12,07,194,25,13,16,060,26,1*7E
$GBGSV,3,2,09,14,15,270,21,21,00,000,20,24,29,302,33,26,00,000,36,1*75
$GBGSV,3,3,09,29,27,046,35,1*45
$GNGSA,A,3,12,25,31,32,,,,,,,,,0.9,0.5,0.7,1*3D
$GNGSA,A,3,71,73,74,84,,,,,,,,,0.9,0.5,0.7,2*34
$GNGSA,A,3,03,05,09,11,24,25,31,,,,,,0.9,0.5,0.7,3*34
$GNGSA,A,3,12,,,,,,,,,,,,0.9,0.5,0.7,4*3C
$GNVTG,355.4,T,355.4,M,38.0,N,70.4,K,A*35
$GNDTM,P90,,0000.000025,S,00000.000001,E,0.986,W84*5F
$GNRMC,135120.00,A,3619.703059,N,00605.364782,W,38.0,355.4,020321,4.0,W,A,V*65
$GNGNS,135120.00,3619.703059,N,00605.364782,W,AAAANN,16,0.5,49.2,49.0,,,V*0E
$GNGGA,135120.00,3619.703059,N,00605.364782,W,1,12,0.5,49.2,M,49.0,M,,*5A
$GPGSV,3,1,09,02,20,063,26,06,02,032,19,12,34,053,31,24,21,123,24,1*60
$GPGSV,3,2,09,25,66,357,40,26,00,000,21,29,59,185,23,31,23,309,32,1*6B
$GPGSV,3,3,09,32,48,258,42,1*59
$GLGSV,3,1,09,74,42,326,36,82,09,023,21,73,49,047,35,80,13,090,17,1*7C
$GLGSV,3,2,09,65,14,320,19,84,40,147,24,83,43,057,16,71,16,223,32,1*79
$GLGSV,3,3,09,72,27,275,24,1*47
$GAGSV,2,1,08,03,19,309,33,05,40,253,34,09,21,195,29,11,10,170,26,7*74
$GAGSV,2,2,08,12,35,119,16,24,64,345,37,25,25,282,36,31,35,064,29,7*72
$GBGSV,3,1,09,05,11,105,24,08,09,036,19,12,07,194,25,13,16,060,23,1*7B
$GBGSV,3,2,09,14,15,270,26,21,00,000,20,24,29,302,32,26,00,000,36,1*73
$GBGSV,3,3,09,29,27,046,35,1*45
$GNGSA,A,3,02,12,24,25,29,31,32,,,,,,0.9,0.5,0.7,1*32
$GNGSA,A,3,71,72,73,74,84,,,,,,,,0.9,0.5,0.7,2*31
$GNGSA,A,3,03,05,09,11,24,25,31,,,,,,0.9,0.5,0.7,3*34
$GNGSA,A,3,12,,,,,,,,,,,,0.9,0.5,0.7,4*3C
$GNVTG,356.8,T,356.8,M,37.0,N,68.6,K,A*31
$GNDTM,P90,,0000.000025,S,00000.000001,E,0.986,W84*5F
$GNRMC,135121.00,A,3619.713618,N,00605.365834,W,37.0,356.8,020321,4.0,W,A,V*65
$GNGNS,135121.00,3619.713618,N,00605.365834,W,AAAANN,20,0.5,49.4,49.0,,,V*0D
$GNGGA,135121.00,3619.713618,N,00605.365834,W,1,12,0.5,49.4,M,49.0,M,,*5C
$GPGSV,3,1,09,02,20,063,24,06,02,032,19,12,34,053,30,24,21,123,25,1*62
$GPGSV,3,2,09,25,66,357,41,26,00,000,22,29,59,185,21,31,23,309,32,1*6B
$GPGSV,3,3,09,32,48,258,42,1*59
$GLGSV,3,1,09,74,42,326,34,82,09,023,20,73,49,047,33,80,13,090,18,1*76
$GLGSV,3,2,09,65,14,320,19,84,40,147,24,83,43,057,16,71,16,223,30,1*7B
$GLGSV,3,3,09,72,27,275,25,1*46
$GAGSV,2,1,08,03,19,309,32,05,40,253,34,09,21,195,28,11,10,170,27,7*75
$GAGSV,2,2,08,12,35,119,21,24,64,345,37,25,25,282,35,31,35,064,30,7*7D
$GBGSV,3,1,09,05,11,105,24,08,09,036,19,12,07,194,22,13,16,060,24,1*7B
$GBGSV,3,2,09,14,15,270,26,21,00,000,20,24,29,302,33,26,00,000,38,1*7C
$GBGSV,3,3,09,29,27,046,35,1*45
$GNGSA,A,3,02,12,24,25,31,32,,,,,,,0.9,0.5,0.7,1*39
$GNGSA,A,3,71,72,73,74,84,,,,,,,,0.9,0.5,0.7,2*31
$GNGSA,A,3,03,05,09,11,24,25,31,,,,,,0.9,0.5,0.7,3*34
$GNVTG,356.5,T,356.5,M,36.0,N,66.7,K,A*3F
$GNDTM,P90,,0000.000025,S,00000.000001,E,0.986,W84*5F
$GNRMC,135122.00,A,3619.723469,N,00605.366575,W,36.0,356.5,020321,4.0,W,A,V*66
$GNGNS,135122.00,3619.723469,N,00605.366575,W,AAANNN,18,0.5,49.8,49.0,,,V*0A
$GNGGA,135122.00,3619.723469,N,00605.366575,W,1,12,0.5,49.8,M,49.0,M,,*5F
$GPGSV,3,1,09,02,20,063,25,06,02,032,19,12,34,053,29,24,21,123,28,1*66
$GPGSV,3,2,09,25,66,357,40,26,00,000,21,29,59,185,21,31,23,309,33,1*68
$GPGSV,3,3,09,32,48,258,42,1*59
$GLGSV,3,1,09,74,42,326,35,82,09,023,20,73,49,047,33,80,13,090,18,1*77
$GLGSV,3,2,09,65,14,320,19,84,40,147,24,83,43,057,16,71,16,223,29,1*73
$GLGSV,3,3,09,72,27,275,27,1*44
$GAGSV,2,1,08,03,19,309,33,05,40,253,34,09,21,195,28,11,10,170,26,7*75
$GAGSV,2,2,08,12,35,119,23,24,64,345,37,25,25,282,36,31,35,064,29,7*74
$GBGSV,3,1,09,05,11,105,24,08,09,036,19,12,07,194,24,13,16,060,24,1*7D
$GBGSV,3,2,09,14,15,270,25,21,00,000,20,24,29,302,34,26,00,000,38,1*78
$GBGSV,3,3,09,29,27,046,33,1*43
$GNGSA,A,3,02,12,24,25,31,32,,,,,,,0.9,0.5,0.7,1*39
$GNGSA,A,3,71,72,73,74,84,,,,,,,,0.9,0.5,0.7,2*31
$GNGSA,A,3,03,05,09,11,24,25,31,,,,,,0.9,0.5,0.7,3*34
$GNVTG,356.6,T,356.6,M,35.2,N,65.2,K,A*38
$GNDTM,P90,,0000.000025,S,00000.000001,E,0.986,W84*5F
$GNRMC,135123.00,A,3619.733018,N,00605.367155,W,35.2,356.6,020321,4.0,W,A,V*61
$GNGNS,135123.00,3619.733018,N,00605.367155,W,AAANNN,18,0.5,49.7,49.0,,,V*00
$GNGGA,135123.00,3619.733018,N,00605.367155,W,1,12,0.5,49.7,M,49.0,M,,*55
$GPGSV,3,1,09,02,20,063,27,06,02,032,19,12,34,053,31,24,21,123,25,1*60
$GPGSV,3,2,09,25,66,357,40,26,00,000,21,29,59,185,21,31,23,309,32,1*69
$GPGSV,3,3,09,32,48,258,43,1*58
$GLGSV,3,1,09,74,42,326,35,82,09,023,23,73,49,047,34,80,13,090,20,1*78
$GLGSV,3,2,09,65,14,320,19,84,40,147,23,83,43,057,16,71,16,223,31,1*7D
$GLGSV,3,3,09,72,27,275,25,1*46
$GAGSV,2,1,08,03,19,309,32,05,40,251,33,09,21,195,28,11,11,170,26,7*70
$GAGSV,2,2,08,12,35,119,22,24,64,347,36,25,26,282,36,31,35,064,28,7*74
$GBGSV,3,1,09,05,11,105,24,08,09,036,18,12,07,194,26,13,16,060,24,1*7E
$GBGSV,3,2,09,14,15,270,23,21,00,000,20,24,29,302,35,26,00,000,38,1*7F
$GBGSV,3,3,09,29,27,046,33,1*43
$GNGSA,A,3,02,12,24,25,31,32,,,,,,,0.9,0.5,0.7,1*39
$GNGSA,A,3,71,72,73,74,84,,,,,,,,0.9,0.5,0.7,2*31
$GNGSA,A,3,03,05,09,11,24,25,31,,,,,,0.9,0.5,0.7,3*34
$GNGSA,A,3,12,,,,,,,,,,,,0.9,0.5,0.7,4*3C
$GNVTG,356.5,T,356.5,M,34.0,N,62.9,K,A*37
$GNDTM,P90,,0000.000025,S,00000.000001,E,0.986,W84*5F
$GNRMC,135124.00,A,3619.742371,N,00605.367860,W,34.0,356.5,020321,4.0,W,A,V*63
$GNGNS,135124.00,3619.742371,N,00605.367860,W,AAAANN,19,0.5,50.0,49.0,,,V*03
$GNGGA,135124.00,3619.742371,N,00605.367860,W,1,12,0.5,50.0,M,49.0,M,,*58
$GPGSV,3,1,09,02,20,063,26,06,02,032,19,12,34,053,35,24,21,123,25,1*65
$GPGSV,3,2,09,25,66,357,40,26,00,000,21,29,59,185,24,31,23,309,33,1*6D
$GPGSV,3,3,09,32,48,258,44,1*5F
$GLGSV,3,1,09,74,42,326,38,82,09,023,23,73,49,047,36,80,13,090,24,1*73
$GLGSV,3,2,09,65,14,320,18,84,40,147,23,83,43,057,21,71,16,223,32,1*7B
$GLGSV,3,3,09,72,27,275,27,1*44
$GAGSV,2,1,08,03,19,309,33,05,40,251,29,09,21,195,27,11,11,170,22,7*71
$GAGSV,2,2,08,12,35,119,24,24,64,347,37,25,26,282,34,31,35,064,30,7*78
$GBGSV,3,1,09,05,11,105,23,08,09,036,18,12,07,194,24,13,16,060,20,1*7F
$GBGSV,3,2,09,14,15,270,23,21,00,000,20,24,29,302,34,26,00,000,38,1*7E
$GBGSV,3,3,09,29,27,046,34,1*44
$GNGSA,A,3,02,12,24,25,29,31,32,,,,,,0.9,0.5,0.7,1*32
$GNGSA,A,3,71,72,73,74,80,84,,,,,,,0.9,0.5,0.7,2*39
$GNGSA,A,3,03,05,09,24,25,31,,,,,,,0.9,0.5,0.7,3*34
$GNVTG,355.7,T,355.7,M,33.3,N,61.6,K,A*3F
$GNDTM,P90,,0000.000025,S,00000.000001,E,0.986,W84*5F
$GNRMC,135125.00,A,3619.751816,N,00605.368761,W,33.3,355.7,020321,4.0,W,A,V*6E
$GNGNS,135125.00,3619.751816,N,00605.368761,W,AAANNN,19,0.5,49.9,49.0,,,V*05
$GNGGA,135125.00,3619.751816,N,00605.368761,W,1,12,0.5,49.9,M,49.0,M,,*51
$GPGSV,3,1,09,02,20,063,28,06,02,032,22,12,34,053,34,24,21,123,23,1*64
$GPGSV,3,2,09,25,66,357,38,26,00,000,21,29,59,185,25,31,23,309,32,1*62
$GPGSV,3,3,09,32,48,258,45,1*5E
$GLGSV,3,1,09,74,42,326,39,82,09,023,30,73,49,047,37,80,13,090,24,1*71
$GLGSV,3,2,09,65,14,320,18,84,40,147,24,83,43,057,26,71,16,223,30,1*79
$GLGSV,3,3,09,72,27,275,24,1*47
$GAGSV,2,1,08,03,19,309,33,05,40,251,29,09,21,195,30,11,11,170,22,7*77
$GAGSV,2,2,08,12,35,119,26,24,64,347,37,25,26,282,31,31,35,064,27,7*79
$GBGSV,3,1,09,05,11,105,23,08,09,036,18,12,07,194,24,13,16,060,20,1*7F
$GBGSV,3,2,09,14,15,270,21,21,00,000,16,24,29,302,31,26,00,000,37,1*73
$GBGSV,3,3,09,29,27,046,34,1*44
$GNGSA,A,3,02,12,24,25,29,31,32,,,,,,0.9,0.5,0.7,1*32
$GNGSA,A,3,71,72,73,74,82,83,84,,,,,,0.9,0.5,0.7,2*30
$GNGSA,A,3,03,09,12,24,25,31,,,,,,,0.9,0.5,0.7,3*32
$GNVTG,354.5,T,354.5,M,32.3,N,59.9,K,A*3A
$GNDTM,P90,,0000.000025,S,00000.000001,E,0.986,W84*5F
$GNRMC,135126.00,A,3619.760929,N,00605.369802,W,32.3,354.5,020321,4.0,W,A,V*6B
$GNGNS,135126.00,3619.760929,N,00605.369802,W,AAANNN,20,0.5,50.1,49.0,,,V*08
$GNGGA,135126.00,3619.760929,N,00605.369802,W,1,12,0.5,50.1,M,49.0,M,,*56
$GPGSV,3,1,09,02,20,063,28,06,02,032,22,12,34,053,30,24,21,123,24,1*67
$GPGSV,3,2,09,25,66,357,34,26,00,000,21,29,59,185,24,31,23,309,29,1*65
$GPGSV,3,3,09,32,48,258,45,1*5E
$GLGSV,3,1,09,74,42,326,39,82,09,023,32,73,49,047,37,80,13,090,22,1*75
$GLGSV,3,2,09,65,14,320,20,84,40,147,21,83,43,057,26,71,16,223,26,1*70
$GLGSV,3,3,09,72,27,275,23,1*40
$GAGSV,2,1,08,03,19,309,25,05,40,251,29,09,21,195,30,11,11,170,23,7*71
$GAGSV,2,2,08,12,35,119,27,24,64,347,36,25,26,282,30,31,35,064,27,7*78
$GBGSV,3,1,09,05,11,105,23,08,09,036,18,12,07,194,24,13,16,060,20,1*7F
$GBGSV,3,2,09,14,15,270,23,21,00,000,16,24,29,302,30,26,00,000,35,1*72
$GBGSV,3,3,09,29,27,046,32,1*42
$GNGSA,A,3,02,12,24,25,29,31,32,,,,,,0.9,0.5,0.7,1*32
$GNGSA,A,3,71,73,74,82,83,,,,,,,,0.9,0.5,0.7,2*39
$GNGSA,A,3,03,09,12,24,25,,,,,,,,0.9,0.5,0.7,3*30
$GNVTG,353.7,T,353.7,M,31.3,N,57.9,K,A*37
$GNDTM,P90,,0000.000025,S,00000.000001,E,0.986,W84*5F
$GNRMC,135127.00,A,3619.769334,N,00605.370778,W,31.3,353.7,020321,4.0,W,A,V*69
$GNGNS,135127.00,3619.769334,N,00605.370778,W,AAANNN,17,0.5,50.0,49.0,,,V*09
$GNGGA,135127.00,3619.769334,N,00605.370778,W,1,12,0.5,50.0,M,49.0,M,,*53
$GPGSV,3,1,09,02,20,063,29,06,02,032,20,12,34,053,31,24,21,123,26,1*67
$GPGSV,3,2,09,25,66,357,33,26,00,000,21,29,59,185,24,31,23,309,27,1*6C
$GPGSV,3,3,09,32,48,258,43,1*58
$GLGSV,3,1,09,74,42,326,39,82,09,023,33,73,49,047,37,80,13,090,31,1*76
$GLGSV,3,2,09,65,14,320,22,84,40,147,21,83,43,057,27,71,16,223,24,1*71
$GLGSV,3,3,09,72,27,275,21,1*42
$GAGSV,2,1,08,03,19,309,24,05,40,251,24,09,21,195,28,11,11,170,23,7*74
$GAGSV,2,2,08,12,35,119,26,24,64,347,35,25,26,282,31,31,35,064,27,7*7B
$GBGSV,3,1,09,05,11,105,27,08,09,036,19,12,07,194,24,13,16,060,23,1*79
$GBGSV,3,2,09,14,15,270,23,21,00,000,16,24,29,302,32,26,00,000,33,1*76
$GBGSV,3,3,09,29,27,046,31,1*41
$GNGSA,A,3,02,12,24,25,29,31,32,,,,,,0.9,0.5,0.7,1*32
$GNGSA,A,3,71,73,74,80,82,83,,,,,,,0.9,0.5,0.7,2*31
$GNGSA,A,3,09,12,24,25,31,,,,,,,,0.9,0.5,0.7,3*31
$GNGSA,A,3,05,,,,,,,,,,,,0.9,0.5,0.7,4*3A
$GNVTG,352.3,T,352.3,M,29.9,N,55.3,K,A*3C
$GNDTM,P90,,0000.000025,S,00000.000001,E,0.986,W84*5F
$GNRMC,135128.00,A,3619.777806,N,00605.372218,W,29.9,352.3,020321,4.0,W,A,V*64
$GNGNS,135128.00,3619.777806,N,00605.372218,W,AAAANN,19,0.5,50.4,49.0,,,V*07
$GNGGA,135128.00,3619.777806,N,00605.372218,W,1,12,0.5,50.4,M,49.0,M,,*5C
$GPGSV,3,1,09,02,20,063,30,06,02,032,20,12,34,053,29,24,21,123,21,1*61
$GPGSV,3,2,09,25,66,357,31,26,00,000,21,29,59,185,29,31,23,309,27,1*63
$GPGSV,3,3,09,32,48,258,42,1*59
$GLGSV,3,1,09,74,42,326,37,82,09,023,32,73,49,047,38,80,13,090,32,1*75
$GLGSV,3,2,09,65,14,320,22,84,40,147,21,83,43,057,28,71,16,223,23,1*79
$GLGSV,3,3,09,72,27,275,28,1*4B
$GAGSV,2,1,08,03,19,309,23,05,40,251,35,09,21,195,27,11,11,170,23,7*7C
$GAGSV,2,2,08,12,35,119,26,24,64,347,36,25,26,282,34,31,35,064,30,7*7B
$GBGSV,3,1,09,05,11,105,27,08,09,036,19,12,07,194,24,13,16,060,25,1*7F
$GBGSV,3,2,09,14,15,270,24,21,00,000,16,24,29,302,30,26,00,000,28,1*79
$GBGSV,3,3,09,29,27,046,25,1*44
$GNGSA,A,3,02,12,25,29,31,32,,,,,,,0.8,0.5,0.7,1*35
$GNGSA,A,3,72,73,74,80,82,83,,,,,,,0.8,0.5,0.7,2*33
$GNGSA,A,3,05,09,24,25,31,,,,,,,,0.8,0.5,0.7,3*36
$GNGSA,A,3,13,,,,,,,,,,,,0.8,0.5,0.7,4*3C
$GNVTG,351.4,T,351.4,M,28.2,N,52.3,K,A*31
$GNDTM,P90,,0000.000025,S,00000.000001,E,0.986,W84*5F
